country,state_name,state_code,latitude,longitude
AF,Badakhshan,AF-BDS,36.7347725,70.8119953
AF,Badghis,AF-BDG,35.1671339,63.7695384
AF,Baghlan,AF-BGL,36.1789026,68.7453064
AF,Balkh,AF-BAL,36.7550603,66.8975372
AF,Bamyan,AF-BAM,34.8100067,67.8212104
AF,Daykundi,AF-DAY,33.669495,66.0463534
AF,Farah,AF-FRA,32.495328,62.2626627
AF,Faryab,AF-FYB,36.0795613,64.905955
AF,Ghazni,AF-GHA,33.5450587,68.4173972
AF,Ghōr,AF-GHO,34.0995776,64.905955
AF,Helmand,AF-HEL,39.2989361,-76.6160472
AF,Herat,AF-HER,34.352865,62.2040287
AF,Jowzjan,AF-JOW,36.8969692,65.6658568
AF,Kabul,AF-KAB,34.5553494,69.207486
AF,Kandahar,AF-KAN,31.628871,65.7371749
AF,Kapisa,AF-KAP,34.9810572,69.6214562
AF,Khost,AF-KHO,33.3338472,69.9371673
AF,Kunar,AF-KNR,34.8465893,71.097317
AF,Kunduz Province,AF-KDZ,36.7285511,68.8678982
AF,Laghman,AF-LAG,34.6897687,70.1455805
AF,Logar,AF-LOG,34.0145518,69.1923916
AF,Nangarhar,AF-NAN,34.1718313,70.6216794
AF,Nimruz,AF-NIM,31.0261488,62.4504154
AF,Nuristan,AF-NUR,35.3250223,70.9071236
AF,Paktia,AF-PIA,33.706199,69.3831079
AF,Paktika,AF-PKA,32.2645386,68.5247149
AF,Panjshir,AF-PAN,38.8802391,-77.1717238
AF,Parwan,AF-PAR,34.9630977,68.8108849
AF,Samangan,AF-SAM,36.3155506,67.9642863
AF,Sar-e Pol,AF-SAR,36.216628,65.93336
AF,Takhar,AF-TAK,36.6698013,69.4784541
AF,Urozgan,AF-URU,32.9271287,66.1415263
AF,Zabul,AF-ZAB,32.1918782,67.1894488
AL,Berat County,AL-1,40.6953012,20.0449662
AL,Berat District,AL-BR,40.7086377,19.9437314
AL,Bulqizë District,AL-BU,41.4942587,20.2147157
AL,Delvinë District,AL-DL,39.9481364,20.0955891
AL,Devoll District,AL-DV,40.6447347,20.9506636
AL,Dibër County,AL-9,41.5888163,20.2355647
AL,Dibër District,AL-DI,41.5888163,20.2355647
AL,Durrës County,AL-2,41.5080972,19.6163185
AL,Durrës District,AL-DR,41.3706517,19.5211063
AL,Elbasan County,AL-3,41.1266672,20.2355647
AL,Fier County,AL-4,40.9191392,19.6639309
AL,Fier District,AL-FR,40.727504,19.5627596
AL,Gjirokastër County,AL-5,40.0672874,20.1045229
AL,Gjirokastër District,AL-GJ,40.0672874,20.1045229
AL,Gramsh District,AL-GR,40.8669873,20.1849323
AL,Has District,AL-HA,42.7901336,-83.6122012
AL,Kavajë District,AL-KA,41.1844529,19.5627596
AL,Kolonjë District,AL-ER,40.3373262,20.6794676
AL,Korçë County,AL-6,40.590567,20.6168921
AL,Korçë District,AL-KO,40.590567,20.6168921
AL,Krujë District,AL-KR,41.5094765,19.7710732
AL,Kuçovë District,AL-KC,40.7837063,19.8782348
AL,Kukës County,AL-7,42.0807464,20.4142923
AL,Kukës District,AL-KU,42.0807464,20.4142923
AL,Kurbin District,AL-KB,41.6412644,19.705595
AL,Lezhë County,AL-8,41.7813759,19.8067916
AL,Lezhë District,AL-LE,41.786073,19.6460758
AL,Librazhd District,AL-LB,41.1829232,20.3174769
AL,Lushnjë District,AL-LU,40.941983,19.6996428
AL,Malësi e Madhe District,AL-MM,42.4245173,19.6163185
AL,Mallakastër District,AL-MK,40.5273376,19.7829791
AL,Mat District,AL-MT,41.5937675,19.9973244
AL,Mirditë District,AL-MR,41.764286,19.9020509
AL,Peqin District,AL-PQ,41.0470902,19.7502384
AL,Përmet District,AL-PR,40.2361837,20.3517334
AL,Pogradec District,AL-PG,40.9015314,20.6556289
AL,Pukë District,AL-PU,42.0469772,19.8960968
AL,Sarandë District,AL-SR,39.8592119,20.0271001
AL,Shkodër County,AL-10,42.150371,19.6639309
AL,Shkodër District,AL-SH,42.0692985,19.5032559
AL,Skrapar District,AL-SK,40.5349946,20.2832217
AL,Tepelenë District,AL-TE,40.2966632,20.0181673
AL,Tirana County,AL-11,41.2427598,19.8067916
AL,Tirana District,AL-TR,41.3275459,19.8186982
AL,Tropojë District,AL-TP,42.3982151,20.1625955
AL,Vlorë County,AL-12,40.150096,19.8067916
AL,Vlorë District,AL-VL,40.4660668,19.491356
DZ,Adrar,DZ-1,26.418131,-0.6014717
DZ,Aïn Defla,DZ-44,36.2509429,1.9393815
DZ,Aïn Témouchent,DZ-46,35.2992698,-1.1392792
DZ,Algiers,DZ-16,36.6997294,3.0576199
DZ,Annaba,DZ-23,36.8020508,7.5247243
DZ,Batna,DZ-5,35.5965954,5.8987139
DZ,Béchar,DZ-8,31.6238098,-2.2162443
DZ,Béjaïa,DZ-6,36.7515258,5.0556837
DZ,Béni Abbès,DZ-53,30.0831042,-2.8345052
DZ,Biskra,DZ-7,34.8449437,5.7248567
DZ,Blida,DZ-9,36.531123,2.8976254
DZ,Bordj Baji Mokhtar,DZ-52,22.966335,-3.9472732
DZ,Bordj Bou Arréridj,DZ-34,36.0739925,4.7630271
DZ,Bouïra,DZ-10,36.3691846,3.9006194
DZ,Boumerdès,DZ-35,36.6839559,3.6217802
DZ,Chlef,DZ-2,36.1693515,1.2891036
DZ,Constantine,DZ-25,36.3373911,6.663812
DZ,Djanet,DZ-56,23.8310872,8.7004672
DZ,Djelfa,DZ-17,34.6703956,3.2503761
DZ,El Bayadh,DZ-32,32.7148824,0.9056623
DZ,El M'ghair,DZ-49,33.9540561,5.1346418
DZ,El Menia,DZ-50,31.364225,2.5784495
DZ,El Oued,DZ-39,33.367811,6.8516511
DZ,El Tarf,DZ-36,36.7576678,8.3076343
DZ,Ghardaïa,DZ-47,32.4943741,3.64446
DZ,Guelma,DZ-24,36.4627444,7.4330833
DZ,Illizi,DZ-33,26.1690005,8.4842465
DZ,In Guezzam,DZ-58,20.3864323,4.7789394
DZ,In Salah,DZ-57,27.2149229,1.8484396
DZ,Jijel,DZ-18,36.7179681,5.9832577
DZ,Khenchela,DZ-40,35.4269404,7.1460155
DZ,Laghouat,DZ-3,33.8078341,2.8628294
DZ,M'Sila,DZ-28,35.7186646,4.5233423
DZ,Mascara,DZ-29,35.3904125,0.1494988
DZ,Médéa,DZ-26,36.2637078,2.7587857
DZ,Mila,DZ-43,36.3647957,6.1526985
DZ,Mostaganem,DZ-27,35.9583054,0.3371889
DZ,Naama,DZ-45,33.2667317,-0.3128659
DZ,Oran,DZ-31,35.6082351,-0.563609
DZ,Ouargla,DZ-30,32.2264863,5.7299821
DZ,Ouled Djellal,DZ-51,34.4178221,4.9685843
DZ,Oum El Bouaghi,DZ-4,35.8688789,7.1108266
DZ,Relizane,DZ-48,35.7383405,0.7532809
DZ,Saïda,DZ-20,34.8415207,0.1456055
DZ,Sétif,DZ-19,36.3073389,5.5617279
DZ,Sidi Bel Abbès,DZ-22,34.6806024,-1.0999495
DZ,Skikda,DZ-21,36.6721198,6.8350999
DZ,Souk Ahras,DZ-41,36.2801062,7.9384033
DZ,Tamanghasset,DZ-11,22.7902972,5.5193268
DZ,Tébessa,DZ-12,35.1290691,7.9592863
DZ,Tiaret,DZ-14,35.3708689,1.3217852
DZ,Timimoun,DZ-54,29.678906,0.5004608
DZ,Tindouf,DZ-37,27.8063119,-5.7299821
DZ,Tipasa,DZ-42,36.546265,2.1843285
DZ,Tissemsilt,DZ-38,35.6053781,1.813098
DZ,Tizi Ouzou,DZ-15,36.706911,4.2333355
DZ,Tlemcen,DZ-13,34.6780284,-1.366216
DZ,Touggourt,DZ-55,33.1248476,5.7832715
AD,Andorra la Vella,AD-7,42.5063174,1.5218355
AD,Canillo,AD-2,42.5978249,1.6566377
AD,Encamp,AD-3,42.5359764,1.5836773
AD,Escaldes-Engordany,AD-8,42.4909379,1.5886966
AD,La Massana,AD-4,42.545625,1.5147392
AD,Ordino,AD-5,42.5994433,1.5402327
AD,Sant Julià de Lòria,AD-6,42.4529631,1.4918235
AO,Bengo Province,AO-BGO,-9.1042257,13.7289167
AO,Benguela Province,AO-BGU,-12.8003744,13.914399
AO,Bié Province,AO-BIE,-12.5727907,17.668887
AO,Cabinda Province,AO-CAB,-5.0248749,12.3463875
AO,Cuando Cubango Province,AO-CCU,-16.4180824,18.8076195
AO,Cuanza Norte Province,AO-CNO,-9.2398513,14.6587821
AO,Cuanza Sul,AO-CUS,-10.595191,15.4068079
AO,Cunene Province,AO-CNN,-16.2802221,16.1580937
AO,Huambo Province,AO-HUA,-12.5268221,15.5943388
AO,Huíla Province,AO-HUI,-14.9280553,14.6587821
AO,Luanda Province,AO-LUA,-9.035088,13.2663479
AO,Lunda Norte Province,AO-LNO,-8.3525022,19.1880047
AO,Lunda Sul Province,AO-LSU,-10.2866578,20.7122465
AO,Malanje Province,AO-MAL,-9.8251183,16.912251
AO,Moxico Province,AO-MOX,-13.4293579,20.3308814
AO,Uíge Province,AO-UIG,-7.1736732,15.4068079
AO,Zaire Province,AO-ZAI,-6.5733458,13.1740348
AG,Barbuda,AG-10,17.6266242,-61.7713028
AG,Redonda,AG-11,16.938416,-62.3455148
AG,Saint George Parish,AG-3,,
AG,Saint John Parish,AG-4,,
AG,Saint Mary Parish,AG-5,,
AG,Saint Paul Parish,AG-6,,
AG,Saint Peter Parish,AG-7,,
AG,Saint Philip Parish,AG-8,40.4368258,-80.0685532
AR,Autonomous City Of Buenos Aires,AR-C,-34.6036844,-58.3815591
AR,Buenos Aires Province,AR-B,-37.2017285,-59.8410697
AR,Catamarca Province,AR-K,-28.4715877,-65.7877209
AR,Chaco Province,AR-H,-27.4257175,-59.0243784
AR,Chubut Province,AR-U,-43.2934246,-65.1114818
AR,Córdoba Province,AR-X,,
AR,Corrientes,AR-W,-27.4692131,-58.8306349
AR,Entre Ríos Province,AR-E,-31.7746654,-60.4956461
AR,Formosa Province,AR-P,-26.1894804,-58.2242806
AR,Jujuy Province,AR-Y,-24.1843397,-65.302177
AR,La Pampa,AR-L,-36.6147573,-64.2839209
AR,La Rioja Province,AR-F,-29.4193793,-66.8559932
AR,Mendoza,AR-M,-32.8894587,-68.8458386
AR,Misiones Province,AR-N,-27.4269255,-55.9467076
AR,Neuquén Province,AR-Q,-38.94587,-68.0730925
AR,Río Negro Province,AR-R,-40.8261434,-63.0266339
AR,Salta Province,AR-A,-24.7997688,-65.4150367
AR,San Juan Province,AR-J,,
AR,San Luis Province,AR-D,-33.2962042,-66.3294948
AR,Santa Cruz Province,AR-Z,-51.6352821,-69.2474353
AR,Santa Fe Province,AR-S,-31.5855109,-60.7238016
AR,Santiago del Estero Province,AR-G,-27.7833574,-64.264167
AR,Tierra del Fuego Province,AR-V,-54.8053998,-68.3242061
AR,Tucumán Province,AR-T,-26.8221127,-65.2192903
AM,Aragatsotn Region,AM-AG,40.3347301,44.3748296
AM,Ararat Province,AM-AR,39.9139415,44.7200004
AM,Armavir Region,AM-AV,40.1554631,44.0372446
AM,Gegharkunik Province,AM-GR,40.3526426,45.1260414
AM,Kotayk Region,AM-KT,40.5410214,44.7690148
AM,Lori Region,AM-LO,40.9698452,44.4900138
AM,Shirak Region,AM-SH,40.9630814,43.8102461
AM,Syunik Province,AM-SU,39.5133112,46.3393234
AM,Tavush Region,AM-TV,40.8866296,45.339349
AM,Vayots Dzor Region,AM-VD,39.7641996,45.3337528
AM,Yerevan,AM-ER,40.1872023,44.515209
AU,Australian Capital Territory,AU-ACT,-35.4734679,149.0123679
AU,New South Wales,AU-NSW,-31.2532183,146.921099
AU,Northern Territory,AU-NT,-19.4914108,132.5509603
AU,Queensland,AU-QLD,-20.9175738,142.7027956
AU,South Australia,AU-SA,-30.0002315,136.2091547
AU,Tasmania,AU-TAS,-41.4545196,145.9706647
AU,Victoria,AU-VIC,,
AU,Western Australia,AU-WA,-27.6728168,121.6283098
AT,Burgenland,AT-1,47.1537165,16.2688797
AT,Carinthia,AT-2,46.722203,14.1805882
AT,Lower Austria,AT-3,48.108077,15.8049558
AT,Salzburg,AT-5,47.80949,13.05501
AT,Styria,AT-6,47.3593442,14.4699827
AT,Tyrol,AT-7,47.2537414,11.601487
AT,Upper Austria,AT-4,48.025854,13.9723665
AT,Vienna,AT-9,48.2081743,16.3738189
AT,Vorarlberg,AT-8,47.2497427,9.9797373
AZ,Absheron District,AZ-ABS,40.3629693,49.2736815
AZ,Agdam District,AZ-AGM,39.9931853,46.9949562
AZ,Agdash District,AZ-AGS,40.6335427,47.467431
AZ,Aghjabadi District,AZ-AGC,28.7891841,77.5160788
AZ,Agstafa District,AZ-AGA,41.2655933,45.5134291
AZ,Agsu District,AZ-AGU,40.5283339,48.3650835
AZ,Astara District,AZ-AST,38.4937845,48.6944365
AZ,Babek District,AZ-BAB,39.1507613,45.4485368
AZ,Baku,AZ-BA,40.4092617,49.8670924
AZ,Balakan District,AZ-BAL,41.7037509,46.4044213
AZ,Barda District,AZ-BAR,40.3706555,47.1378909
AZ,Beylagan District,AZ-BEY,39.7723073,47.6154166
AZ,Bilasuvar District,AZ-BIL,39.4598833,48.5509813
AZ,Dashkasan District,AZ-DAS,40.5202257,46.0779304
AZ,Fizuli District,AZ-FUZ,39.5378605,47.3033877
AZ,Ganja,AZ-GA,36.3687338,-95.9985767
AZ,Gədəbəy,AZ-GAD,40.5699639,45.8106883
AZ,Gobustan District,AZ-QOB,40.5326104,48.927375
AZ,Goranboy District,AZ-GOR,40.5380506,46.5990891
AZ,Goychay,AZ-GOY,40.6236168,47.7403034
AZ,Goygol District,AZ-GYG,40.5595378,46.3314953
AZ,Hajigabul District,AZ-HAC,40.039377,48.9202533
AZ,Imishli District,AZ-IMI,39.8694686,48.0665218
AZ,Ismailli District,AZ-ISM,40.7429936,48.2125556
AZ,Jabrayil District,AZ-CAB,39.2645544,46.9621562
AZ,Jalilabad District,AZ-CAL,39.2051632,48.5100604
AZ,Julfa District,AZ-CUL,38.9604983,45.6292939
AZ,Kalbajar District,AZ-KAL,40.1024329,46.0364872
AZ,Kangarli District,AZ-KAN,39.387194,45.1639852
AZ,Khachmaz District,AZ-XAC,41.4591168,48.8020626
AZ,Khizi District,AZ-XIZ,40.9109489,49.0729264
AZ,Khojali District,AZ-XCI,39.9132553,46.794305
AZ,Kurdamir District,AZ-KUR,40.3698651,48.1644626
AZ,Lachin District,AZ-LAC,39.6383414,46.5460853
AZ,Lankaran,AZ-LAN,38.7528669,48.8475015
AZ,Lankaran District,AZ-LA,38.7528669,48.8475015
AZ,Lerik District,AZ-LER,38.7736192,48.4151483
AZ,Martuni,AZ-XVD,39.7914693,47.1100814
AZ,Masally District,AZ-MAS,39.0340722,48.6589354
AZ,Mingachevir,AZ-MI,40.7702563,47.0496015
AZ,Nakhchivan Autonomous Republic,AZ-NX,39.3256814,45.4912648
AZ,Neftchala District,AZ-NEF,39.3881052,49.2413743
AZ,Oghuz District,AZ-OGU,41.0727924,47.4650672
AZ,Ordubad District,AZ-ORD,38.9021622,46.0237625
AZ,Qabala District,AZ-QAB,40.9253925,47.8016106
AZ,Qakh District,AZ-QAX,41.4206827,46.9320184
AZ,Qazakh District,AZ-QAZ,41.0971074,45.3516331
AZ,Quba District,AZ-QBA,41.1564242,48.4135021
AZ,Qubadli District,AZ-QBI,39.2713996,46.6354312
AZ,Qusar District,AZ-QUS,41.4266886,48.4345577
AZ,Saatly District,AZ-SAT,39.9095503,48.3595122
AZ,Sabirabad District,AZ-SAB,39.9870663,48.4692545
AZ,Sadarak District,AZ-SAD,39.7105114,44.8864277
AZ,Salyan District,AZ-SAL,28.3524811,82.12784
AZ,Samukh District,AZ-SMX,40.7604631,46.4063181
AZ,Shabran District,AZ-SBN,41.2228376,48.8457304
AZ,Shahbuz District,AZ-SAH,39.4452103,45.6568009
AZ,Shaki,AZ-SA,41.1974753,47.1571241
AZ,Shaki District,AZ-SAK,41.1134662,47.1316927
AZ,Shamakhi District,AZ-SMI,40.6318731,48.6363801
AZ,Shamkir District,AZ-SKR,40.8288144,46.0166879
AZ,Sharur District,AZ-SAR,39.5536332,44.984568
AZ,Shirvan,AZ-SR,39.9469707,48.9223919
AZ,Shusha District,AZ-SUS,39.7537438,46.7464755
AZ,Siazan District,AZ-SIY,41.0783833,49.1118477
AZ,Sumqayit,AZ-SM,40.5854765,49.6317411
AZ,Tartar District,AZ-TAR,40.3443875,46.9376519
AZ,Tovuz District,AZ-TOV,40.9954523,45.6165907
AZ,Ujar District,AZ-UCA,40.5067525,47.6489641
AZ,Yardymli District,AZ-YAR,38.9058917,48.2496127
AZ,Yevlakh,AZ-YE,40.6196638,47.1500324
AZ,Yevlakh District,AZ-YEV,40.6196638,47.1500324
AZ,Zangilan District,AZ-ZAN,39.0856899,46.6524728
AZ,Zaqatala District,AZ-ZAQ,41.5906889,46.7240373
AZ,Zardab District,AZ-ZAR,40.2148114,47.714944
BS,Acklins,BS-AK,22.3657708,-74.0535126
BS,Acklins and Crooked Islands,BS-AC,22.3657708,-74.0535126
BS,Berry Islands,BS-BY,25.6250042,-77.8252203
BS,Bimini,BS-BI,24.6415325,-79.8506226
BS,Black Point,BS-BP,41.3951024,-71.4650556
BS,Cat Island,BS-CI,30.2280136,-89.1014933
BS,Central Abaco,BS-CO,26.3555029,-77.1485163
BS,Central Andros,BS-CS,24.4688482,-77.973865
BS,Central Eleuthera,BS-CE,25.1362037,-76.1435915
BS,Crooked Island,BS-CK,22.6390982,-74.006509
BS,East Grand Bahama,BS-EG,26.6582823,-78.2248291
BS,Exuma,BS-EX,23.6192598,-75.9695465
BS,Freeport,BS-FP,42.2966861,-89.6212271
BS,Fresh Creek,BS-FC,40.6543756,-73.8947939
BS,Governor's Harbour,BS-GH,25.1948096,-76.2439622
BS,Grand Cay,BS-GC,27.2162615,-78.3230559
BS,Green Turtle Cay,BS-GT,26.7747107,-77.3295708
BS,Harbour Island,BS-HI,25.50011,-76.6340511
BS,High Rock,BS-HR,46.6843415,-121.9017461
BS,Hope Town,BS-HT,26.5009504,-76.9959872
BS,Inagua,BS-IN,21.0656066,-73.323708
BS,Kemps Bay,BS-KB,24.02364,-77.545349
BS,Long Island,BS-LI,40.789142,-73.134961
BS,Mangrove Cay,BS-MC,24.1481425,-77.7680952
BS,Marsh Harbour,BS-MH,26.5241653,-77.0909809
BS,Mayaguana District,BS-MG,22.4017714,-73.0641396
BS,New Providence,BS-NP,40.6984348,-74.4015405
BS,Nichollstown and Berry Islands,BS-NB,25.7236234,-77.8310104
BS,North Abaco,BS-NO,26.7871697,-77.4357739
BS,North Andros,BS-NS,24.7063805,-78.0195387
BS,North Eleuthera,BS-NE,25.4647517,-76.675922
BS,Ragged Island,BS-RI,41.597431,-71.260202
BS,Rock Sound,BS-RS,39.0142443,-95.6708989
BS,Rum Cay District,BS-RC,23.6854676,-74.8390162
BS,San Salvador and Rum Cay,BS-SR,23.6854676,-74.8390162
BS,San Salvador Island,BS-SS,24.0775546,-74.4760088
BS,Sandy Point,BS-SP,39.0145464,-76.3998925
BS,South Abaco,BS-SO,26.0640591,-77.2635038
BS,South Andros,BS-SA,23.9713556,-77.6077865
BS,South Eleuthera,BS-SE,24.7708562,-76.2131474
BS,Spanish Wells,BS-SW,26.3250599,-81.7980328
BS,West Grand Bahama,BS-WG,26.659447,-78.52065
BH,Capital Governorate,BH-13,,
BH,Central Governorate,BH-16,26.1426093,50.5653294
BH,Muharraq Governorate,BH-15,26.2685653,50.6482517
BH,Northern Governorate,BH-17,26.1551914,50.4825173
BH,Southern Governorate,BH-14,25.9381018,50.5756887
BD,Bagerhat District,BD-5,22.6602436,89.7895478
BD,Bahadia,BD-33,23.7898712,90.1671483
BD,Bandarban District,BD-1,21.8311002,92.3686321
BD,Barguna District,BD-2,22.0952915,90.1120696
BD,Barisal District,BD-6,22.7022098,90.3696316
BD,Barisal Division,BD-A,22.3811131,90.3371889
BD,Bhola District,BD-7,22.1785315,90.7101023
BD,Bogra District,BD-3,24.8510402,89.3697225
BD,Brahmanbaria District,BD-4,23.9608181,91.1115014
BD,Chandpur District,BD-9,23.2513148,90.8517846
BD,Chapai Nawabganj District,BD-45,24.7413111,88.2912069
BD,Chittagong District,BD-10,22.5150105,91.7538817
BD,Chittagong Division,BD-B,23.1793157,91.9881527
BD,Chuadanga District,BD-12,23.6160512,88.8263006
BD,Comilla District,BD-8,23.4575667,91.1808996
BD,Cox's Bazar District,BD-11,21.5640626,92.0282129
BD,Dhaka District,BD-13,23.810514,90.3371889
BD,Dhaka Division,BD-C,23.9535742,90.1494988
BD,Dinajpur District,BD-14,25.6279123,88.6331758
BD,Faridpur District,BD-15,23.5423919,89.6308921
BD,Feni District,BD-16,22.9408784,91.4066646
BD,Gaibandha District,BD-19,25.3296928,89.5429652
BD,Gazipur District,BD-18,24.0958171,90.4125181
BD,Gopalganj District,BD-17,26.4831584,84.43655
BD,Habiganj District,BD-20,24.4771236,91.4506565
BD,Jamalpur District,BD-21,25.0830926,89.7853218
BD,Jessore District,BD-22,23.1634014,89.2181664
BD,Jhalokati District,BD-25,22.57208,90.1869644
BD,Jhenaidah District,BD-23,23.5449873,89.1726031
BD,Joypurhat District,BD-24,25.0947349,89.0944937
BD,Khagrachari District,BD-29,23.1321751,91.949021
BD,Khulna District,BD-27,22.6737735,89.3966581
BD,Khulna Division,BD-D,22.8087816,89.2467191
BD,Kishoreganj District,BD-26,24.4260457,90.9820668
BD,Kurigram District,BD-28,25.8072414,89.6294746
BD,Kushtia District,BD-30,23.8906995,89.1099368
BD,Lakshmipur District,BD-31,22.9446744,90.8281907
BD,Lalmonirhat District,BD-32,25.9923398,89.2847251
BD,Madaripur District,BD-36,23.2393346,90.1869644
BD,Meherpur District,BD-39,23.8051991,88.6723578
BD,Moulvibazar District,BD-38,24.3095344,91.7314903
BD,Munshiganj District,BD-35,23.4980931,90.4126621
BD,Mymensingh District,BD-34,24.7538575,90.4072919
BD,Mymensingh Division,BD-H,24.71362,90.4502368
BD,Naogaon District,BD-48,24.9131597,88.7530952
BD,Narail District,BD-43,23.1162929,89.5840404
BD,Narayanganj District,BD-40,23.7146601,90.563609
BD,Natore District,BD-44,24.410243,89.0076177
BD,Netrokona District,BD-41,24.8103284,90.8656415
BD,Nilphamari District,BD-46,25.8482798,88.9414134
BD,Noakhali District,BD-47,22.8723789,91.0973184
BD,Pabna District,BD-49,24.158505,89.4480718
BD,Panchagarh District,BD-52,26.2708705,88.5951751
BD,Patuakhali District,BD-51,22.2248632,90.4547503
BD,Pirojpur District,BD-50,22.5790744,89.9759264
BD,Rajbari District,BD-53,23.715134,89.5874819
BD,Rajshahi District,BD-54,24.3733087,88.6048716
BD,Rajshahi Division,BD-E,24.7105776,88.9413865
BD,Rangamati Hill District,BD-56,22.7324173,92.2985134
BD,Rangpur District,BD-55,25.7467925,89.2508335
BD,Rangpur Division,BD-F,25.8483388,88.9413865
BD,Satkhira District,BD-58,22.3154812,89.1114525
BD,Shariatpur District,BD-62,23.2423214,90.4347711
BD,Sherpur District,BD-57,25.0746235,90.1494904
BD,Sirajganj District,BD-59,24.3141115,89.5699615
BD,Sunamganj District,BD-61,25.0714535,91.3991627
BD,Sylhet District,BD-60,24.8993357,91.8700473
BD,Sylhet Division,BD-G,24.7049811,91.6760691
BD,Tangail District,BD-63,24.3917427,89.9948257
BD,Thakurgaon District,BD-64,26.0418392,88.4282616
BB,Christ Church,BB-1,36.0060407,-95.921121
BB,Saint Andrew,BB-2,,
BB,Saint George,BB-3,37.0965278,-113.5684164
BB,Saint James,BB-4,48.523566,-1.3237885
BB,Saint John,BB-5,45.2733153,-66.063308
BB,Saint Joseph,BB-6,39.7674578,-94.846681
BB,Saint Lucy,BB-7,38.7614625,-77.4491439
BB,Saint Michael,BB-8,36.035977,-95.849052
BB,Saint Peter,BB-9,37.0827119,-94.517125
BB,Saint Philip,BB-10,35.233114,-89.4364042
BB,Saint Thomas,BB-11,18.3380965,-64.8940946
BY,Brest Region,BY-BR,52.5296641,25.460648
BY,Gomel Region,BY-HO,52.1648754,29.1333251
BY,Grodno Region,BY-HR,53.6599945,25.3448571
BY,Minsk,BY-HM,53.9006011,27.558972
BY,Minsk Region,BY-MI,54.1067889,27.4129245
BY,Mogilev Region,BY-MA,53.5101791,30.4006444
BY,Vitebsk Region,BY-VI,55.2959833,28.7583627
BE,Antwerp,BE-VAN,51.2194475,4.4024643
BE,Brussels-Capital Region,BE-BRU,50.8503463,4.3517211
BE,East Flanders,BE-VOV,51.0362101,3.7373124
BE,Flanders,BE-VLG,51.0108706,3.7264613
BE,Flemish Brabant,BE-VBR,50.8815434,4.564597
BE,Hainaut,BE-WHT,50.5257076,4.0621017
BE,Liège,BE-WLG,50.6325574,5.5796662
BE,Limburg,BE-VLI,,
BE,Luxembourg,BE-WLX,49.815273,6.129583
BE,Namur,BE-WNA,50.4673883,4.8719854
BE,Wallonia,BE-WAL,50.4175637,4.4510066
BE,Walloon Brabant,BE-WBR,50.633241,4.524315
BE,West Flanders,BE-VWV,40.0179334,-105.2806733
BZ,Belize District,BZ-BZ,17.5677679,-88.4016041
BZ,Cayo District,BZ-CY,17.0984445,-88.9413865
BZ,Corozal District,BZ-CZL,18.1349238,-88.2461183
BZ,Orange Walk District,BZ-OW,17.760353,-88.864698
BZ,Stann Creek District,BZ-SC,16.8116631,-88.4016041
BZ,Toledo District,BZ-TOL,16.2491923,-88.864698
BJ,Alibori Department,BJ-AL,10.9681093,2.7779813
BJ,Atakora Department,BJ-AK,10.7954931,1.6760691
BJ,Atlantique Department,BJ-AQ,6.6588391,2.2236667
BJ,Borgou Department,BJ-BO,9.5340864,2.7779813
BJ,Collines Department,BJ-CO,8.3022297,2.302446
BJ,Donga Department,BJ-DO,9.7191867,1.6760691
BJ,Kouffo Department,BJ-KO,7.0035894,1.7538817
BJ,Littoral Department,BJ-LI,6.3806973,2.4406387
BJ,Mono Department,BJ-MO,37.9218608,-118.9528645
BJ,Ouémé Department,BJ-OU,6.6148152,2.4999918
BJ,Plateau Department,BJ-PL,7.3445141,2.539603
BJ,Zou Department,BJ-ZO,7.3469268,2.0665197
BM,Devonshire Parish,BM-DEV,32.3038062,-64.7606954
BM,Hamilton Municipality,BM-HAM,43.323944,-79.9059219
BM,Hamilton Parish,BM-HA,32.3449432,-64.72365
BM,Paget Parish,BM-PAG,32.281074,-64.7784787
BM,Pembroke Parish,BM-PEM,32.3007672,-64.796263
BM,Saint George's Municipality,BM-SG,37.0965278,-113.5684164
BM,Saint George's Parish,BM-SGE,17.1257759,-62.5619811
BM,Sandys Parish,BM-SAN,32.2999528,-64.8674103
BM,"Smith's Parish,",BM-SMI,32.3133966,-64.7310588
BM,Southampton Parish,BM-SOU,32.2540095,-64.8259058
BM,Warwick Parish,BM-WAR,32.2661534,-64.8081198
BT,Bumthang District,BT-33,27.641839,90.6773046
BT,Chukha District,BT-12,27.0784304,89.4742177
BT,Dagana District,BT-22,27.0322861,89.8879304
BT,Gasa District,BT-GA,28.0185886,89.9253233
BT,Haa District,BT-13,27.2651669,89.1705998
BT,Lhuntse District,BT-44,27.8264989,91.135302
BT,Mongar District,BT-42,27.2617059,91.2891036
BT,Paro District,BT-11,27.4285949,89.4166516
BT,Pemagatshel District,BT-43,27.002382,91.3469247
BT,Punakha District,BT-23,27.6903716,89.8879304
BT,Samdrup Jongkhar District,BT-45,26.8035682,91.5039207
BT,Samtse District,BT-14,27.0291832,89.0561532
BT,Sarpang District,BT-31,26.9373041,90.4879916
BT,Thimphu District,BT-15,27.4712216,89.6339041
BT,Trashigang District,BT-41,27.2566795,91.7538817
BT,Trongsa District,BT-32,27.5002269,90.5080634
BT,Tsirang District,BT-21,27.032207,90.1869644
BT,Wangdue Phodrang District,BT-24,27.4526046,90.0674928
BT,Zhemgang District,BT-34,27.076975,90.8294002
BO,Beni Department,BO-B,-14.3782747,-65.0957792
BO,Chuquisaca Department,BO-H,-20.0249144,-64.1478236
BO,Cochabamba Department,BO-C,-17.5681675,-65.475736
BO,La Paz Department,BO-L,,
BO,Oruro Department,BO-O,-18.5711579,-67.7615983
BO,Pando Department,BO-N,-10.7988901,-66.9988011
BO,Potosí Department,BO-P,-20.624713,-66.9988011
BO,Santa Cruz Department,BO-S,-16.7476037,-62.0750998
BO,Tarija Department,BO-T,-21.5831595,-63.9586111
BA,Bosnian Podrinje Canton,BA-5,43.68749,18.8244394
BA,Brčko District,BA-BRC,44.8405944,18.742153
BA,Canton 10,BA-10,43.9534155,16.9425187
BA,Central Bosnia Canton,BA-6,44.1381856,17.6866714
BA,Federation of Bosnia and Herzegovina,BA-BIH,43.8874897,17.842793
BA,Herzegovina-Neretva Canton,BA-7,43.5265159,17.763621
BA,Posavina Canton,BA-2,45.0752094,18.3776304
BA,Republika Srpska,BA-SRP,44.7280186,17.3148136
BA,Sarajevo Canton,BA-9,43.8512564,18.2953442
BA,Tuzla Canton,BA-3,44.5343463,18.6972797
BA,Una-Sana Canton,BA-1,44.6503116,16.3171629
BA,West Herzegovina Canton,BA-8,43.4369244,17.3848831
BA,Zenica-Doboj Canton,BA-4,44.2127109,18.1604625
BW,Central District,BW-CE,,
BW,Ghanzi District,BW-GH,-21.8652314,21.8568586
BW,Kgalagadi District,BW-KG,-24.7550285,21.8568586
BW,Kgatleng District,BW-KL,-24.1970445,26.2304616
BW,Kweneng District,BW-KW,-23.8367249,25.2837585
BW,Ngamiland,BW-NG,-19.1905321,23.0011989
BW,North-East District,BW-NE,37.5884461,-94.6863782
BW,North-West District,BW-NW,39.3446307,-76.6854283
BW,South-East District,BW-SE,31.2163798,-82.3527044
BW,Southern District,BW-SO,,
BR,Acre,BR-AC,32.933052,35.082678
BR,Alagoas,BR-AL,-9.5713058,-36.7819505
BR,Amapá,BR-AP,0.9019925,-52.0029565
BR,Amazonas,BR-AM,,
BR,Bahia,BR-BA,26.113539,-80.106204
BR,Ceará,BR-CE,-5.4983977,-39.3206241
BR,Espírito Santo,BR-ES,-19.1834229,-40.3088626
BR,Federal District,BR-DF,-15.7997654,-47.8644715
BR,Goiás,BR-GO,-15.8270369,-49.8362237
BR,Maranhão,BR-MA,-4.9609498,-45.2744159
BR,Mato Grosso,BR-MT,-12.6818712,-56.921099
BR,Mato Grosso do Sul,BR-MS,-20.7722295,-54.7851531
BR,Minas Gerais,BR-MG,-18.512178,-44.5550308
BR,Pará,BR-PA,-1.9981271,-54.9306152
BR,Paraíba,BR-PB,-7.2399609,-36.7819505
BR,Paraná,BR-PR,-25.2520888,-52.0215415
BR,Pernambuco,BR-PE,-8.8137173,-36.954107
BR,Piauí,BR-PI,-7.7183401,-42.7289236
BR,Rio de Janeiro,BR-RJ,-22.9068467,-43.1728965
BR,Rio Grande do Norte,BR-RN,-5.4025803,-36.954107
BR,Rio Grande do Sul,BR-RS,-30.0346316,-51.2176986
BR,Rondônia,BR-RO,-11.5057341,-63.580611
BR,Roraima,BR-RR,2.7375971,-62.0750998
BR,Santa Catarina,BR-SC,,
BR,São Paulo,BR-SP,-23.5505199,-46.6333094
BR,Sergipe,BR-SE,-10.5740934,-37.3856581
BR,Tocantins,BR-TO,-10.17528,-48.2982474
BN,Belait District,BN-BE,4.3750749,114.6192899
BN,Brunei-Muara District,BN-BM,4.9311206,114.9516869
BN,Temburong District,BN-TE,4.6204128,115.141484
BN,Tutong District,BN-TU,4.7140373,114.6667939
BG,Blagoevgrad Province,BG-1,42.0208614,23.0943356
BG,Burgas Province,BG-2,42.5048,27.4626079
BG,Dobrich Province,BG-8,43.572786,27.8272802
BG,Gabrovo Province,BG-7,42.86847,25.316889
BG,Haskovo Province,BG-26,41.9344178,25.5554672
BG,Kardzhali Province,BG-9,41.6338416,25.3776687
BG,Kyustendil Province,BG-10,42.2868799,22.6939635
BG,Lovech Province,BG-11,43.1367798,24.7139335
BG,Montana Province,BG-12,43.4085148,23.2257589
BG,Pazardzhik Province,BG-13,42.1927567,24.3336226
BG,Pernik Province,BG-14,42.605199,23.0377916
BG,Pleven Province,BG-15,43.4170169,24.6066708
BG,Plovdiv Province,BG-16,42.1354079,24.7452904
BG,Razgrad Province,BG-17,43.5271705,26.5241228
BG,Ruse Province,BG-18,43.8355964,25.9656144
BG,Shumen,BG-27,43.2712398,26.9361286
BG,Silistra Province,BG-19,44.1147101,27.2671454
BG,Sliven Province,BG-20,42.6816702,26.3228569
BG,Smolyan Province,BG-21,41.5774148,24.7010871
BG,Sofia City Province,BG-22,42.7570109,23.4504683
BG,Sofia Province,BG-23,42.67344,23.8334937
BG,Stara Zagora Province,BG-24,42.4257709,25.6344855
BG,Targovishte Province,BG-25,43.2462349,26.5691251
BG,Varna Province,BG-3,43.2046477,27.9105488
BG,Veliko Tarnovo Province,BG-4,43.0756539,25.61715
BG,Vidin Province,BG-5,43.9961739,22.8679515
BG,Vratsa Province,BG-6,43.2101806,23.552921
BG,Yambol Province,BG-28,42.4841494,26.5035296
BF,Balé Province,BF-BAL,11.7820602,-3.0175712
BF,Bam Province,BF-BAM,13.446133,-1.5983959
BF,Banwa Province,BF-BAN,12.1323053,-4.1513764
BF,Bazèga Province,BF-BAZ,11.9767692,-1.443469
BF,Boucle du Mouhoun Region,BF-1,12.4166,-3.4195527
BF,Bougouriba Province,BF-BGR,10.8722646,-3.3388917
BF,Boulgou,BF-BLG,11.4336766,-0.3748354
BF,Cascades Region,BF-2,10.4072992,-4.5624426
BF,Centre,BF-3,,
BF,Centre-Est Region,BF-4,11.5247674,-0.1494988
BF,Centre-Nord Region,BF-5,13.1724464,-0.9056623
BF,Centre-Ouest Region,BF-6,11.8798466,-2.302446
BF,Centre-Sud Region,BF-7,11.5228911,-1.0586135
BF,Comoé Province,BF-COM,10.4072992,-4.5624426
BF,Est Region,BF-8,12.4365526,0.9056623
BF,Ganzourgou Province,BF-GAN,12.2537648,-0.7532809
BF,Gnagna Province,BF-GNA,12.8974992,0.0746767
BF,Gourma Province,BF-GOU,12.1624473,0.6773046
BF,Hauts-Bassins Region,BF-9,11.4942003,-4.2333355
BF,Houet Province,BF-HOU,11.1320447,-4.2333355
BF,Ioba Province,BF-IOB,11.0562034,-3.0175712
BF,Kadiogo Province,BF-KAD,12.3425897,-1.443469
BF,Kénédougou Province,BF-KEN,11.3919395,-4.976654
BF,Komondjari Province,BF-KMD,12.7126527,0.6773046
BF,Kompienga Province,BF-KMP,11.5238362,0.7532809
BF,Kossi Province,BF-KOS,12.960458,-3.9062688
BF,Koulpélogo Province,BF-KOP,11.5247674,0.1494988
BF,Kouritenga Province,BF-KOT,12.1631813,-0.2244662
BF,Kourwéogo Province,BF-KOW,12.7077495,-1.7538817
BF,Léraba Province,BF-LER,10.6648785,-5.3102505
BF,Loroum Province,BF-LOR,13.8129814,-2.0665197
BF,Mouhoun,BF-MOU,12.1432381,-3.3388917
BF,Nahouri Province,BF-NAO,11.2502267,-1.135302
BF,Namentenga Province,BF-NAM,13.0812584,-0.5257823
BF,Nayala Province,BF-NAY,12.6964558,-3.0175712
BF,"Nord Region, Burkina Faso",BF-10,13.718252,-2.302446
BF,Noumbiel Province,BF-NOU,9.8440946,-2.9775558
BF,Oubritenga Province,BF-OUB,12.7096087,-1.443469
BF,Oudalan Province,BF-OUD,14.471902,-0.4502368
BF,Passoré Province,BF-PAS,12.8881221,-2.2236667
BF,Plateau-Central Region,BF-11,12.2537648,-0.7532809
BF,Poni Province,BF-PON,10.3325996,-3.3388917
BF,Sahel Region,BF-12,14.1000865,-0.1494988
BF,Sanguié Province,BF-SNG,12.1501861,-2.6983868
BF,Sanmatenga Province,BF-SMT,13.3565304,-1.0586135
BF,Séno Province,BF-SEN,14.0072234,-0.0746767
BF,Sissili Province,BF-SIS,11.2441219,-2.2236667
BF,Soum Province,BF-SOM,14.0962841,-1.366216
BF,Sourou Province,BF-SOR,13.341803,-2.9375739
BF,Sud-Ouest Region,BF-13,10.4231493,-3.2583626
BF,Tapoa Province,BF-TAP,12.2497072,1.6760691
BF,Tuy Province,BF-TUI,38.888684,-77.004719
BF,Yagha Province,BF-YAG,13.3576157,0.7532809
BF,Yatenga Province,BF-YAT,13.6249344,-2.3813621
BF,Ziro Province,BF-ZIR,11.6094995,-1.9099238
BF,Zondoma Province,BF-ZON,13.1165926,-2.4208713
BF,Zoundwéogo Province,BF-ZOU,11.6141174,-0.9820668
BI,Bubanza Province,BI-BB,-3.1572403,29.3714909
BI,Bujumbura Mairie Province,BI-BM,-3.3884141,29.3482646
BI,Bujumbura Rural Province,BI-BL,-3.5090144,29.464359
BI,Bururi Province,BI-BR,-3.9006851,29.5107708
BI,Cankuzo Province,BI-CA,-3.1527788,30.6199895
BI,Cibitoke Province,BI-CI,-2.8102897,29.1855785
BI,Gitega Province,BI-GI,-3.4929051,29.9277947
BI,Karuzi Province,BI-KR,-3.1340347,30.112735
BI,Kayanza Province,BI-KY,-3.0077981,29.6499162
BI,Kirundo Province,BI-KI,-2.5762882,30.112735
BI,Makamba Province,BI-MA,-4.3257062,29.6962677
BI,Muramvya Province,BI-MU,-3.2898398,29.6499162
BI,Muyinga Province,BI-MY,-2.7793511,30.2974199
BI,Mwaro Province,BI-MW,-3.5025918,29.6499162
BI,Ngozi Province,BI-NG,-2.8958243,29.8815203
BI,Rumonge Province,BI-RM,-3.9754049,29.4388014
BI,Rutana Province,BI-RT,-3.8791523,30.0665236
BI,Ruyigi Province,BI-RY,-3.446207,30.2512728
KH,Banteay Meanchey Province,KH-1,13.7531914,102.989615
KH,Battambang Province,KH-2,13.0286971,102.989615
KH,Kampong Cham Province,KH-3,12.0982918,105.3131185
KH,Kampong Chhnang Province,KH-4,12.1392352,104.5655273
KH,Kampong Speu Province,KH-5,11.6155109,104.3791912
KH,Kampot Province,KH-7,10.7325351,104.3791912
KH,Kandal Province,KH-8,11.2237383,105.1258955
KH,Kep Province,KH-23,10.536089,104.3559158
KH,Koh Kong Province,KH-9,11.5762804,103.3587288
KH,Kratié Province,KH-10,12.5043608,105.9699878
KH,Mondulkiri Province,KH-11,12.7879427,107.1011931
KH,Oddar Meanchey Province,KH-22,14.1609738,103.8216261
KH,Pailin Province,KH-24,12.9092962,102.6675575
KH,Phnom Penh,KH-12,11.5563738,104.9282099
KH,Preah Vihear Province,KH-13,14.0085797,104.8454619
KH,Prey Veng Province,KH-14,11.3802442,105.5005483
KH,Pursat Province,KH-15,12.2720956,103.7289167
KH,Ratanakiri Province,KH-16,13.8576607,107.1011931
KH,Siem Reap Province,KH-17,13.330266,104.1001326
KH,Sihanoukville Province,KH-18,10.7581899,103.8216261
KH,Stung Treng Province,KH-19,13.576473,105.9699878
KH,Svay Rieng Province,KH-20,11.142722,105.8290298
KH,Takéo Province,KH-21,10.9321519,104.798771
CM,Adamawa,CM-AD,9.3264751,12.3983853
CM,Centre,CM-CE,,
CM,East,CM-ES,39.0185336,-94.2792411
CM,Far North,CM-EN,66.7613451,124.123753
CM,Littoral,CM-LT,48.4622757,-68.5178071
CM,North,CM-NO,37.09024,-95.712891
CM,Northwest,CM-NW,36.3711857,-94.1934606
CM,South,CM-SU,37.631595,-97.3458409
CM,Southwest,CM-SW,36.1908813,-95.8897448
CM,West,CM-OU,37.0364989,-95.6705987
CA,Alberta,CA-AB,53.9332706,-116.5765035
CA,British Columbia,CA-BC,53.7266683,-127.6476205
CA,Manitoba,CA-MB,53.7608608,-98.8138762
CA,New Brunswick,CA-NB,46.5653163,-66.4619164
CA,Newfoundland and Labrador,CA-NL,53.1355091,-57.6604364
CA,Northwest Territories,CA-NT,64.8255441,-124.8457334
CA,Nova Scotia,CA-NS,44.6819866,-63.744311
CA,Nunavut,CA-NU,70.2997711,-83.107577
CA,Ontario,CA-ON,51.253775,-85.323214
CA,Prince Edward Island,CA-PE,46.510712,-63.4168136
CA,Quebec,CA-QC,52.9399159,-73.5491361
CA,Saskatchewan,CA-SK,52.9399159,-106.4508639
CA,Yukon,CA-YT,35.5067215,-97.7625441
CV,Barlavento Islands,CV-B,16.8236845,-23.9934881
CV,Boa Vista,CV-BV,38.743466,-120.7304297
CV,Brava,CV-BR,40.9897778,-73.6835715
CV,Maio Municipality,CV-MA,15.2003098,-23.1679793
CV,Mosteiros,CV-MO,37.8904348,-25.8207556
CV,Paul,CV-PA,37.0625,-95.677068
CV,Porto Novo,CV-PN,6.4968574,2.6288523
CV,Praia,CV-PR,14.93305,-23.5133267
CV,Ribeira Brava Municipality,CV-RB,16.6070739,-24.2033843
CV,Ribeira Grande,CV-RG,37.8210369,-25.5148137
CV,Ribeira Grande de Santiago,CV-RS,14.9830298,-23.6561725
CV,Sal,CV-SL,26.5958122,-80.2045083
CV,Santa Catarina,CV-CA,-27.2423392,-50.2188556
CV,Santa Catarina do Fogo,CV-CF,14.9309104,-24.3222577
CV,Santa Cruz,CV-CR,36.9741171,-122.0307963
CV,São Domingos,CV-SD,15.0286165,-23.563922
CV,São Filipe,CV-SF,14.8951679,-24.4945636
CV,São Lourenço dos Órgãos,CV-SO,15.0537841,-23.6085612
CV,São Miguel,CV-SM,37.780411,-25.4970466
CV,São Vicente,CV-SV,-23.9607157,-46.3962022
CV,Sotavento Islands,CV-S,15,-24
CV,Tarrafal,CV-TA,15.2760578,-23.7484077
CV,Tarrafal de São Nicolau,CV-TS,16.5636498,-24.354942
CF,Bamingui-Bangoran Prefecture,CF-BB,8.2733455,20.7122465
CF,Bangui,CF-BGF,4.3946735,18.5581899
CF,Basse-Kotto Prefecture,CF-BK,4.8719319,21.2845025
CF,Haut-Mbomou Prefecture,CF-HM,6.2537134,25.4733554
CF,Haute-Kotto Prefecture,CF-HK,7.7964379,23.3823545
CF,Kémo Prefecture,CF-KG,5.8867794,19.3783206
CF,Lobaye Prefecture,CF-LB,4.3525981,17.4795173
CF,Mambéré-Kadéï,CF-HS,4.7055653,15.9699878
CF,Mbomou Prefecture,CF-MB,5.556837,23.7632828
CF,Nana-Grébizi Economic Prefecture,CF-KB,7.1848607,19.3783206
CF,Nana-Mambéré Prefecture,CF-NM,5.6932135,15.2194808
CF,Ombella-M'Poko Prefecture,CF-MP,5.1188825,18.4276047
CF,Ouaka Prefecture,CF-UK,6.3168216,20.7122465
CF,Ouham Prefecture,CF-AC,7.090911,17.668887
CF,Ouham-Pendé Prefecture,CF-OP,6.4850984,16.1580937
CF,Sangha-Mbaéré,CF-SE,3.4368607,16.3463791
CF,Vakaga Prefecture,CF-VK,9.5113296,22.2384017
TD,Bahr el Gazel,TD-BG,14.7702266,16.912251
TD,Batha Region,TD-BA,13.9371775,18.4276047
TD,Borkou,TD-BO,17.8688845,18.8076195
TD,Ennedi Region,TD-EN,17.5414578,21.8568586
TD,Ennedi-Est,TD-EE,16.3420496,23.0011989
TD,Ennedi-Ouest,TD-EO,18.977563,21.8568586
TD,Guéra Region,TD-GR,11.1219015,18.4276047
TD,Hadjer-Lamis,TD-HL,12.4577273,16.7234639
TD,Kanem Region,TD-KA,14.8781262,15.4068079
TD,Lac Region,TD-LC,13.6915377,14.1001326
TD,Logone Occidental Region,TD-LO,8.759676,15.876004
TD,Logone Oriental Region,TD-LR,8.3149949,16.3463791
TD,Mandoul Region,TD-MA,8.603091,17.4795173
TD,Mayo-Kebbi Est Region,TD-ME,9.4046039,14.8454619
TD,Mayo-Kebbi Ouest Region,TD-MO,10.4113014,15.5943388
TD,Moyen-Chari Region,TD-MC,9.0639998,18.4276047
TD,N'Djamena,TD-ND,12.1348457,15.0557415
TD,Ouaddaï Region,TD-OD,13.748476,20.7122465
TD,Salamat Region,TD-SA,10.9691601,20.7122465
TD,Sila Region,TD-SI,12.13074,21.2845025
TD,Tandjilé Region,TD-TA,9.6625729,16.7234639
TD,Tibesti Region,TD-TI,21.3650031,16.912251
TD,Wadi Fira Region,TD-WF,15.0892416,21.4752851
CL,Aisén del General Carlos Ibañez del Campo,CL-AI,-46.378345,-72.3007623
CL,Antofagasta,CL-AN,-23.8369104,-69.2877535
CL,Arica y Parinacota,CL-AP,-18.5940485,-69.4784541
CL,Atacama,CL-AT,-27.5660558,-70.050314
CL,Biobío,CL-BI,-37.4464428,-72.1416132
CL,Coquimbo,CL-CO,-30.540181,-70.8119953
CL,La Araucanía,CL-AR,-38.948921,-72.331113
CL,Libertador General Bernardo O'Higgins,CL-LI,-34.5755374,-71.0022311
CL,Los Lagos,CL-LL,-41.9197779,-72.1416132
CL,Los Ríos,CL-LR,-40.2310217,-72.331113
CL,Magallanes y de la Antártica Chilena,CL-MA,-52.2064316,-72.1685001
CL,Maule,CL-ML,-35.5163603,-71.5723953
CL,Ñuble,CL-NB,-36.7225743,-71.7622481
CL,Región Metropolitana de Santiago,CL-RM,-33.4375545,-70.6504896
CL,Tarapacá,CL-TA,-20.2028799,-69.2877535
CL,Valparaíso,CL-VS,-33.047238,-71.6126885
CN,Anhui,CN-AH,30.6006773,117.9249002
CN,Beijing,CN-BJ,39.9041999,116.4073963
CN,Chongqing,CN-CQ,29.4315861,106.912251
CN,Fujian,CN-FJ,26.4836842,117.9249002
CN,Gansu,CN-GS,35.7518326,104.2861116
CN,Guangdong,CN-GD,23.3790333,113.7632828
CN,Guangxi Zhuang Autonomous Region,CN-GX,23.7247599,108.8076195
CN,Guizhou,CN-GZ,26.8429645,107.2902839
CN,Hainan,CN-HI,19.5663947,109.949686
CN,Hebei,CN-HE,37.8956594,114.9042208
CN,Heilongjiang,CN-HL,47.1216472,128.738231
CN,Henan,CN-HA,34.2904302,113.3823545
CN,Hong Kong,CN-HK,22.3193039,114.1693611
CN,Hubei,CN-HB,30.7378118,112.2384017
CN,Hunan,CN-HN,36.7341294,-95.9344902
CN,Inner Mongolia,CN-NM,43.37822,115.0594815
CN,Jiangsu,CN-JS,33.1401715,119.7889248
CN,Jiangxi,CN-JX,27.0874564,114.9042208
CN,Jilin,CN-JL,43.837883,126.549572
CN,Keelung,CN-TW-KEE,25.1276033,121.7391833
CN,Liaoning,CN-LN,41.9436543,122.5290376
CN,Macau,CN-MO,22.198745,113.543873
CN,Ningxia Hui Autonomous Region,CN-NX,37.198731,106.1580937
CN,Qinghai,CN-QH,35.744798,96.4077358
CN,Shaanxi,CN-SN,35.3939908,109.1880047
CN,Shandong,CN-SD,37.8006064,-122.2699918
CN,Shanghai,CN-SH,31.230416,121.473701
CN,Shanxi,CN-SX,37.2425649,111.8568586
CN,Sichuan,CN-SC,30.2638032,102.8054753
CN,"Taiwan Province, People's Republic of China",CN-TW,23.69781,120.960515
CN,Tibet Autonomous Region,CN-XZ,30.1533605,88.7878678
CN,Xinjiang,CN-XJ,42.5246357,87.5395855
CN,Yunnan,CN-YN,24.4752847,101.3431058
CN,Zhejiang,CN-ZJ,29.1416432,119.7889248
CO,Amazonas,CO-AMA,-1.4429123,-71.5723953
CO,Antioquia,CO-ANT,7.1986064,-75.3412179
CO,Arauca,CO-ARA,6.547306,-71.0022311
CO,Atlántico,CO-ATL,10.6966159,-74.8741045
CO,Bogotá,CO-DC,4.2820415,-74.5027042
CO,Bolívar,CO-BOL,8.6704382,-74.0300122
CO,Boyacá,CO-BOY,5.454511,-73.362003
CO,Caldas,CO-CAL,5.29826,-75.2479061
CO,Caquetá,CO-CAQ,0.869892,-73.8419063
CO,Casanare,CO-CAS,5.7589269,-71.5723953
CO,Cauca,CO-CAU,2.7049813,-76.8259652
CO,Cesar,CO-CES,9.3372948,-73.6536209
CO,Chocó,CO-CHO,5.2528033,-76.8259652
CO,Córdoba,CO-COR,8.049293,-75.57405
CO,Cundinamarca,CO-CUN,5.026003,-74.0300122
CO,Guainía,CO-GUA,2.585393,-68.5247149
CO,Guaviare,CO-GUV,2.043924,-72.331113
CO,Huila,CO-HUI,2.5359349,-75.5276699
CO,La Guajira,CO-LAG,11.3547743,-72.5204827
CO,Magdalena,CO-MAG,10.4113014,-74.4056612
CO,Meta,CO-MET,39.7673258,-104.9753595
CO,Nariño,CO-NAR,1.289151,-77.35794
CO,Norte de Santander,CO-NSA,7.9462831,-72.8988069
CO,Putumayo,CO-PUT,0.4359506,-75.5276699
CO,Quindío,CO-QUI,4.4610191,-75.667356
CO,Risaralda,CO-RIS,5.3158475,-75.9927652
CO,"San Andrés, Providencia y Santa Catalina",CO-SAP,12.5567324,-81.7185253
CO,Santander,CO-SAN,6.6437076,-73.6536209
CO,Sucre,CO-SUC,8.813977,-74.723283
CO,Tolima,CO-TOL,4.0925168,-75.1545381
CO,Valle del Cauca,CO-VAC,3.8008893,-76.6412712
CO,Vaupés,CO-VAU,0.8553561,-70.8119953
CO,Vichada,CO-VID,4.4234452,-69.2877535
KM,Anjouan,KM-A,-12.2138145,44.4370606
KM,Grande Comore,KM-G,-11.7167338,43.3680788
KM,Mohéli,KM-M,-12.3377376,43.7334089
CG,Bouenza Department,CG-11,-4.1128079,13.7289167
CG,Brazzaville,CG-BZV,-4.2633597,15.2428853
CG,Cuvette Department,CG-8,-0.2877446,16.1580937
CG,Cuvette-Ouest Department,CG-15,0.144755,14.4723301
CG,Kouilou Department,CG-5,-4.1428413,11.8891721
CG,Lékoumou Department,CG-2,-3.170382,13.3587288
CG,Likouala Department,CG-7,2.043924,17.668887
CG,Niari Department,CG-9,-3.18427,12.2547919
CG,Plateaux Department,CG-14,-2.0680088,15.4068079
CG,Pointe-Noire,CG-16,-4.7691623,11.866362
CG,Pool Department,CG-12,-3.7762628,14.8454619
CG,Sangha Department,CG-13,1.4662328,15.4068079
CR,Alajuela Province,CR-A,10.391583,-84.4382721
CR,Guanacaste Province,CR-G,10.6267399,-85.4436706
CR,Heredia Province,CR-H,10.473523,-84.0167423
CR,Limón Province,CR-L,9.9896398,-83.0332417
CR,Provincia de Cartago,CR-C,9.8622311,-83.9214187
CR,Puntarenas Province,CR-P,9.2169531,-83.336188
CR,San José Province,CR-SJ,9.9129727,-84.0768294
CI,Abidjan,CI-AB,5.3599517,-4.0082563
CI,Agnéby,CI-16,5.3224503,-4.3449529
CI,Bafing Region,CI-17,8.3252047,-7.5247243
CI,Bas-Sassandra District,CI-BS,5.2798356,-6.1526985
CI,Bas-Sassandra Region,CI-9,5.3567916,-6.7493993
CI,Comoé District,CI-CM,5.552793,-3.2583626
CI,Denguélé District,CI-DN,48.0707763,-68.5609341
CI,Denguélé Region,CI-10,9.4662372,-7.4381355
CI,Dix-Huit Montagnes,CI-6,7.3762373,-7.4381355
CI,Fromager,CI-18,45.5450213,-73.6046223
CI,Gôh-Djiboua District,CI-GD,5.8711393,-5.5617279
CI,Haut-Sassandra,CI-2,6.8757848,-6.5783387
CI,Lacs District,CI-LC,48.1980169,-80.4564412
CI,Lacs Region,CI-7,47.7395866,-70.4186652
CI,Lagunes District,CI-LG,5.8827334,-4.2333355
CI,Lagunes region,CI-1,5.8827334,-4.2333355
CI,Marahoué Region,CI-12,6.8846207,-5.8987139
CI,Montagnes District,CI-MG,7.3762373,-7.4381355
CI,Moyen-Cavally,CI-19,6.5208793,-7.6114217
CI,Moyen-Comoé,CI-5,6.6514917,-3.5003454
CI,N'zi-Comoé,CI-11,7.2456749,-4.2333355
CI,Sassandra-Marahoué District,CI-SM,6.8803348,-6.2375947
CI,Savanes Region,CI-3,,
CI,Sud-Bandama,CI-15,5.5357083,-5.5617279
CI,Sud-Comoé,CI-13,5.552793,-3.2583626
CI,Vallée du Bandama District,CI-VB,8.278978,-4.8935627
CI,Vallée du Bandama Region,CI-4,8.278978,-4.8935627
CI,Woroba District,CI-WR,8.2491372,-6.9209135
CI,Worodougou,CI-14,8.2548962,-6.5783387
CI,Yamoussoukro,CI-YM,6.8276228,-5.2893433
CI,Zanzan Region,CI-ZZ,8.8207904,-3.4195527
HR,Bjelovar-Bilogora County,HR-7,45.8987972,16.8423093
HR,Brod-Posavina County,HR-12,45.2637951,17.3264562
HR,Dubrovnik-Neretva County,HR-19,43.0766588,17.5268471
HR,Istria County,HR-18,45.1286455,13.901542
HR,Koprivnica-Križevci County,HR-6,46.1568919,16.8390826
HR,Krapina-Zagorje County,HR-2,46.1013393,15.8809693
HR,Lika-Senj County,HR-9,44.6192218,15.4701608
HR,Međimurje County,HR-20,46.3766644,16.4213298
HR,Osijek-Baranja County,HR-14,45.5576428,18.3942141
HR,Požega-Slavonia County,HR-11,45.3417868,17.8114359
HR,Primorje-Gorski Kotar County,HR-8,45.3173996,14.8167466
HR,Šibenik-Knin County,HR-15,43.9281485,16.1037694
HR,Sisak-Moslavina County,HR-3,45.3837926,16.5380994
HR,Split-Dalmatia County,HR-17,43.5240328,16.8178377
HR,Varaždin County,HR-5,46.2317473,16.3360559
HR,Virovitica-Podravina County,HR-10,45.6557985,17.7932472
HR,Vukovar-Syrmia County,HR-16,45.1773552,18.8053527
HR,Zadar County,HR-13,44.146939,15.6164943
HR,Zagreb,HR-21,45.8150108,15.9819189
HR,Zagreb County,HR-1,45.8706612,16.395491
CU,Artemisa Province,CU-15,22.7522903,-82.9931607
CU,Camagüey Province,CU-9,21.2167247,-77.7452081
CU,Ciego de Ávila Province,CU-8,21.9329515,-78.5660852
CU,Cienfuegos Province,CU-6,22.2379783,-80.365865
CU,Granma Province,CU-12,20.3844902,-76.6412712
CU,Guantánamo Province,CU-14,20.1455917,-74.8741045
CU,Havana Province,CU-3,23.0540698,-82.345189
CU,Holguín Province,CU-11,20.7837893,-75.8069082
CU,Isla de la Juventud,CU-99,21.7084737,-82.8220232
CU,Las Tunas Province,CU-10,21.0605162,-76.9182097
CU,Matanzas Province,CU-4,22.5767123,-81.3399414
CU,Mayabeque Province,CU-16,22.8926529,-81.9534815
CU,Pinar del Río Province,CU-1,22.4076256,-83.8473015
CU,Sancti Spíritus Province,CU-7,21.9938214,-79.4703885
CU,Santiago de Cuba Province,CU-13,20.2397682,-75.9927652
CU,Villa Clara Province,CU-5,22.4937204,-79.9192702
CY,Famagusta District,CY-4,35.2857023,33.8411288
CY,Kyrenia District,CY-6,35.299194,33.2363246
CY,Larnaca District,CY-3,34.8507206,33.4831906
CY,Limassol District,CY-2,34.7071301,33.0226174
CY,Nicosia District,CY-1,35.1855659,33.3822764
CY,Paphos District,CY-5,34.9164594,32.4920088
CZ,Benešov,CZ-201,49.6900828,14.7764399
CZ,Beroun,CZ-202,49.9573428,13.9840715
CZ,Blansko,CZ-641,49.3648502,16.6477552
CZ,Břeclav,CZ-644,48.75314,16.8825169
CZ,Brno-město,CZ-642,49.1950602,16.6068371
CZ,Brno-venkov,CZ-643,49.1250138,16.4558824
CZ,Bruntál,CZ-801,49.9881767,17.4636941
CZ,Česká Lípa,CZ-511,50.6785201,14.5396991
CZ,České Budějovice,CZ-311,48.9775553,14.5150747
CZ,Český Krumlov,CZ-312,48.8127354,14.3174657
CZ,Cheb,CZ-411,50.0795334,12.3698636
CZ,Chomutov,CZ-422,50.4583872,13.301791
CZ,Chrudim,CZ-531,49.8830216,15.8290866
CZ,Děčín,CZ-421,50.7725563,14.2127612
CZ,Domažlice,CZ-321,49.4397027,12.9311435
CZ,Frýdek-Místek,CZ-802,49.6819305,18.3673216
CZ,Havlíčkův Brod,CZ-631,49.6043364,15.5796552
CZ,Hodonín,CZ-645,48.8529391,17.1260025
CZ,Hradec Králové,CZ-521,50.2414805,15.6743
CZ,Jablonec nad Nisou,CZ-512,50.7220528,15.1703135
CZ,Jeseník,CZ-711,50.2246249,17.1980471
CZ,Jičín,CZ-522,50.4353325,15.361044
CZ,Jihlava,CZ-632,49.3983782,15.5870415
CZ,Jihočeský kraj,CZ-31,48.9457789,14.4416055
CZ,Jihomoravský kraj,CZ-64,48.9544528,16.7676899
CZ,Jindřichův Hradec,CZ-313,49.1444823,15.0061389
CZ,Karlovarský kraj,CZ-41,50.1435,12.7501899
CZ,Karlovy Vary,CZ-412,50.1435,12.7501899
CZ,Karviná,CZ-803,49.8566524,18.5432186
CZ,Kladno,CZ-203,50.1940258,14.1043657
CZ,Klatovy,CZ-322,49.3955549,13.2950937
CZ,Kolín,CZ-204,49.9883293,15.0551977
CZ,Kraj Vysočina,CZ-63,49.4490052,15.6405934
CZ,Královéhradecký kraj,CZ-52,50.3512484,15.7976459
CZ,Kroměříž,CZ-721,49.2916582,17.39938
CZ,Kutná Hora,CZ-205,49.9492089,15.247044
CZ,Liberec,CZ-513,50.7564101,14.9965041
CZ,Liberecký kraj,CZ-51,50.659424,14.7632424
CZ,Litoměřice,CZ-423,50.5384197,14.1305458
CZ,Louny,CZ-424,50.3539812,13.8033551
CZ,Mělník,CZ-206,50.3104415,14.5179223
CZ,Mladá Boleslav,CZ-207,50.4252317,14.9362477
CZ,Moravskoslezský kraj,CZ-80,49.7305327,18.2332637
CZ,Most,CZ-425,37.1554083,-94.2948884
CZ,Náchod,CZ-523,50.4145722,16.1656347
CZ,Nový Jičín,CZ-804,49.5943251,18.0135356
CZ,Nymburk,CZ-208,50.1855816,15.0436604
CZ,Olomouc,CZ-712,49.593778,17.2508787
CZ,Olomoucký kraj,CZ-71,49.6586549,17.0811406
CZ,Opava,CZ-805,49.9083757,17.916338
CZ,Ostrava-město,CZ-806,49.8209226,18.2625243
CZ,Pardubice,CZ-532,49.9444479,16.2856916
CZ,Pardubický kraj,CZ-53,49.9444479,16.2856916
CZ,Pelhřimov,CZ-633,49.4306207,15.222983
CZ,Písek,CZ-314,49.3419938,14.246976
CZ,Plzeň-jih,CZ-324,49.5904885,13.5715861
CZ,Plzeň-město,CZ-323,49.7384314,13.3736371
CZ,Plzeň-sever,CZ-325,49.8774893,13.2537428
CZ,Plzeňský kraj,CZ-32,49.4134812,13.3157246
CZ,Prachatice,CZ-315,49.01091,14.0000005
CZ,Praha-východ,CZ-209,49.9389307,14.7924472
CZ,Praha-západ,CZ-20A,49.8935235,14.3293779
CZ,"Praha, Hlavní město",CZ-10,50.0755381,14.4378005
CZ,Přerov,CZ-714,49.4671356,17.5077332
CZ,Příbram,CZ-20B,49.6947959,14.082381
CZ,Prostějov,CZ-713,49.4418401,17.1277904
CZ,Rakovník,CZ-20C,50.106123,13.7396623
CZ,Rokycany,CZ-326,49.8262827,13.6874943
CZ,Rychnov nad Kněžnou,CZ-524,50.1659651,16.2776842
CZ,Semily,CZ-514,50.6051576,15.3281409
CZ,Sokolov,CZ-413,50.2013434,12.6054636
CZ,Strakonice,CZ-316,49.2604043,13.9103085
CZ,Středočeský kraj,CZ-20,49.8782223,14.9362955
CZ,Šumperk,CZ-715,49.9778407,16.9717754
CZ,Svitavy,CZ-533,49.7551629,16.4691861
CZ,Tábor,CZ-317,49.3646293,14.7191293
CZ,Tachov,CZ-327,49.7987803,12.6361921
CZ,Teplice,CZ-426,50.6584605,13.7513227
CZ,Třebíč,CZ-634,49.2147869,15.8795516
CZ,Trutnov,CZ-525,50.5653838,15.9090923
CZ,Uherské Hradiště,CZ-722,49.0597969,17.4958501
CZ,Ústecký kraj,CZ-42,50.6119037,13.7870086
CZ,Ústí nad Labem,CZ-427,50.6119037,13.7870086
CZ,Ústí nad Orlicí,CZ-534,49.9721801,16.3996617
CZ,Vsetín,CZ-723,49.379325,18.0618162
CZ,Vyškov,CZ-646,49.2127445,16.9855927
CZ,Žďár nad Sázavou,CZ-635,49.5643012,15.939103
CZ,Zlín,CZ-724,49.1696052,17.802522
CZ,Zlínský kraj,CZ-72,49.2162296,17.7720353
CZ,Znojmo,CZ-647,48.9272327,16.1037808
CD,Bas-Uélé,CD-BU,3.9901009,24.9042208
CD,Équateur,CD-EQ,-1.831239,-78.183406
CD,Haut-Katanga,CD-HK,-10.4102075,27.5495846
CD,Haut-Lomami,CD-HL,-7.7052752,24.9042208
CD,Haut-Uélé,CD-HU,3.5845154,28.299435
CD,Ituri,CD-IT,1.5957682,29.4179324
CD,Kasaï,CD-KS,-5.0471979,20.7122465
CD,Kasaï Central,CD-KC,-8.4404591,20.4165934
CD,Kasaï Oriental,CD-KE,-6.033623,23.5728501
CD,Kinshasa,CD-KN,-4.4419311,15.2662931
CD,Kongo Central,CD-BC,-5.2365685,13.914399
CD,Kwango,CD-KG,-6.4337409,17.668887
CD,Kwilu,CD-KL,-5.1188825,18.4276047
CD,Lomami,CD-LO,-6.1453931,24.524264
CD,Lualaba,CD-LU,-10.4808698,25.6297816
CD,Mai-Ndombe,CD-MN,-2.6357434,18.4276047
CD,Maniema,CD-MA,-3.0730929,26.0413889
CD,Mongala,CD-MO,1.9962324,21.4752851
CD,Nord-Kivu,CD-NK,-0.7917729,29.0459927
CD,Nord-Ubangi,CD-NU,3.7878726,21.4752851
CD,Sankuru,CD-SA,-2.8437453,23.3823545
CD,Sud-Kivu,CD-SK,-3.011658,28.299435
CD,Sud-Ubangi,CD-SU,3.2299942,19.1880047
CD,Tanganyika,CD-TA,-6.2740118,27.9249002
CD,Tshopo,CD-TO,0.5455462,24.9042208
CD,Tshuapa,CD-TU,-0.9903023,23.0288844
DK,Capital Region of Denmark,DK-84,55.6751812,12.5493261
DK,Central Denmark Region,DK-82,56.302139,9.302777
DK,North Denmark Region,DK-81,56.8307416,9.4930527
DK,Region of Southern Denmark,DK-83,55.3307714,9.0924903
DK,Region Zealand,DK-85,55.4632518,11.7214979
DJ,Ali Sabieh Region,DJ-AS,11.1928973,42.941698
DJ,Arta Region,DJ-AR,11.5255528,42.8479474
DJ,Dikhil Region,DJ-DI,11.1054336,42.3704744
DJ,Djibouti,DJ-DJ,11.825138,42.590275
DJ,Obock Region,DJ-OB,12.3895691,43.0194897
DJ,Tadjourah Region,DJ-TA,11.9338885,42.3938375
DM,Saint Andrew Parish,DM-2,,
DM,Saint David Parish,DM-3,,
DM,Saint George Parish,DM-4,,
DM,Saint John Parish,DM-5,,
DM,Saint Joseph Parish,DM-6,39.0222712,-94.7176504
DM,Saint Luke Parish,DM-7,42.1051363,-80.0570722
DM,Saint Mark Parish,DM-8,,
DM,Saint Patrick Parish,DM-9,,
DM,Saint Paul Parish,DM-10,38.86146,-90.7435619
DM,Saint Peter Parish,DM-11,40.4524194,-80.0085056
DO,Azua Province,DO-2,18.4552709,-70.7380928
DO,Baoruco Province,DO-3,18.4879898,-71.4182249
DO,Barahona Province,DO-4,18.2139066,-71.1043759
DO,Dajabón Province,DO-5,19.5499241,-71.7086514
DO,Distrito Nacional,DO-1,18.4860575,-69.9312117
DO,Duarte Province,DO-6,19.2090823,-70.0270004
DO,El Seibo Province,DO-8,18.7658496,-69.040668
DO,Espaillat Province,DO-9,19.6277658,-70.2786775
DO,Hato Mayor Province,DO-30,18.7635799,-69.2557637
DO,Hermanas Mirabal Province,DO-19,19.3747559,-70.3513235
DO,Independencia,DO-10,32.6335748,-115.4289294
DO,La Altagracia Province,DO-11,18.5850236,-68.6201072
DO,La Romana Province,DO-12,18.4310271,-68.9837373
DO,La Vega Province,DO-13,19.2211554,-70.5288753
DO,María Trinidad Sánchez Province,DO-14,19.3734597,-69.8514439
DO,Monseñor Nouel Province,DO-28,18.9215234,-70.3836815
DO,Monte Cristi Province,DO-15,19.7396899,-71.4433984
DO,Monte Plata Province,DO-29,18.8080878,-69.7869146
DO,Pedernales Province,DO-16,17.8537626,-71.3303209
DO,Peravia Province,DO-17,18.2786594,-70.3335887
DO,Puerto Plata Province,DO-18,19.7543225,-70.8332847
DO,Samaná Province,DO-20,19.2058371,-69.3362949
DO,San Cristóbal Province,DO-21,18.4180414,-70.1065849
DO,San José de Ocoa Province,DO-31,18.543858,-70.5041816
DO,San Juan Province,DO-22,-31.5287127,-68.5360403
DO,San Pedro de Macorís,DO-23,18.46266,-69.3051234
DO,Sánchez Ramírez Province,DO-24,19.052706,-70.1492264
DO,Santiago Province,DO-25,-33.45,-70.6667
DO,Santiago Rodríguez Province,DO-26,19.4713181,-71.3395801
DO,Santo Domingo Province,DO-32,18.5104253,-69.8404054
DO,Valverde Province,DO-27,19.5881221,-70.980331
TL,Aileu municipality,TL-AL,-8.7043994,125.6095474
TL,Ainaro Municipality,TL-AN,-9.0113171,125.5220012
TL,Baucau Municipality,TL-BA,-8.4714308,126.4575991
TL,Bobonaro Municipality,TL-BO,-8.9655406,125.2587964
TL,Cova Lima Municipality,TL-CO,-9.2650375,125.2587964
TL,Dili municipality,TL-DI,-8.2449613,125.5876697
TL,Ermera District,TL-ER,-8.7524802,125.3987294
TL,Lautém Municipality,TL-LA,-8.3642307,126.9043845
TL,Liquiçá Municipality,TL-LI,-8.6674095,125.2587964
TL,Manatuto District,TL-MT,-8.5155608,126.0159255
TL,Manufahi Municipality,TL-MF,-9.0145495,125.8279959
TL,Viqueque Municipality,TL-VI,-8.8597918,126.3633516
EC,Azuay Province,EC-A,-2.8943068,-78.9968344
EC,Bolívar Province,EC-B,-1.7095828,-79.0450429
EC,Cañar Province,EC-F,-2.5589315,-78.9388191
EC,Carchi Province,EC-C,0.5026912,-77.9042521
EC,Chimborazo Province,EC-H,-1.6647995,-78.6543255
EC,Cotopaxi Province,EC-X,-0.8384206,-78.6662678
EC,El Oro Province,EC-O,-3.2592413,-79.9583541
EC,Esmeraldas,EC-E,0.9681789,-79.6517202
EC,Galápagos Province,EC-W,-0.9537691,-90.9656019
EC,Guayas Province,EC-G,-1.9574839,-79.9192702
EC,Imbabura Province,EC-I,0.3499768,-78.1260129
EC,Los Ríos Province,EC-R,-1.0230607,-79.4608897
EC,Manabí Province,EC-M,-1.0543434,-80.452644
EC,Morona-Santiago Province,EC-S,-2.3051062,-78.1146866
EC,Napo Province,EC-N,-0.9955964,-77.8129684
EC,Orellana Province,EC-D,-0.4545163,-76.9950286
EC,Pastaza Province,EC-Y,-1.4882265,-78.0031057
EC,Pichincha Province,EC-P,-0.1464847,-78.4751945
EC,Santa Elena Province,EC-SE,-2.2267105,-80.859499
EC,Santo Domingo de los Tsáchilas Province,EC-SD,-0.2521882,-79.1879383
EC,Sucumbíos Province,EC-U,0.0889231,-76.8897557
EC,Tungurahua Province,EC-T,-1.2635284,-78.5660852
EC,Zamora-Chinchipe Province,EC-Z,-4.0655892,-78.9503525
EG,Alexandria Governorate,EG-ALX,30.8760568,29.742604
EG,Aswan Governorate,EG-ASN,23.6966498,32.7181375
EG,Asyut Governorate,EG-AST,27.2133831,31.4456179
EG,Beheira Governorate,EG-BH,30.8480986,30.3435506
EG,Beni Suef Governorate,EG-BNS,28.8938837,31.4456179
EG,Cairo Governorate,EG-C,29.9537564,31.5370003
EG,Dakahlia Governorate,EG-DK,31.1656044,31.4913182
EG,Damietta Governorate,EG-DT,31.3625799,31.6739371
EG,Faiyum Governorate,EG-FYM,29.3084021,30.8428497
EG,Gharbia Governorate,EG-GH,30.8753556,31.03351
EG,Giza Governorate,EG-GZ,28.7666216,29.2320784
EG,Ismailia Governorate,EG-IS,30.5830934,32.2653887
EG,Kafr el-Sheikh Governorate,EG-KFS,31.3085444,30.8039474
EG,Luxor Governorate,EG-LX,25.3944444,32.4920088
EG,Matrouh Governorate,EG-MT,29.569635,26.419389
EG,Minya Governorate,EG-MN,28.284729,30.5279096
EG,Monufia Governorate,EG-MNF,30.5972455,30.9876321
EG,New Valley Governorate,EG-WAD,24.5455638,27.1735316
EG,North Sinai Governorate,EG-SIN,30.282365,33.617577
EG,Port Said Governorate,EG-PTS,31.0758606,32.2653887
EG,Qalyubia Governorate,EG-KB,30.3292368,31.2168466
EG,Qena Governorate,EG-KN,26.2346033,32.9888319
EG,Red Sea Governorate,EG-BA,24.6826316,34.1531947
EG,Sohag Governorate,EG-SHG,26.693834,32.174605
EG,South Sinai Governorate,EG-JS,29.3101828,34.1531947
EG,Suez Governorate,EG-SUZ,29.3682255,32.174605
SV,Ahuachapán Department,SV-AH,13.8216148,-89.9253233
SV,Cabañas Department,SV-CA,13.8648288,-88.7493998
SV,Chalatenango Department,SV-CH,14.1916648,-89.1705998
SV,Cuscatlán Department,SV-CU,13.8661957,-89.0561532
SV,La Libertad Department,SV-LI,13.6817661,-89.3606298
SV,La Paz Department,SV-PA,,
SV,La Unión Department,SV-UN,13.4886443,-87.8942451
SV,Morazán Department,SV-MO,13.7682,-88.1291387
SV,San Miguel Department,SV-SM,13.4451041,-88.2461183
SV,San Salvador Department,SV-SS,13.7739997,-89.2086773
SV,San Vicente Department,SV-SV,13.5868561,-88.7493998
SV,Santa Ana Department,SV-SA,14.1461121,-89.5120084
SV,Sonsonate Department,SV-SO,13.682358,-89.6628111
SV,Usulután Department,SV-US,13.4470634,-88.556531
GQ,Annobón Province,GQ-AN,-1.4268782,5.6352801
GQ,Bioko Norte Province,GQ-BN,3.6595072,8.7921836
GQ,Bioko Sur Province,GQ-BS,3.4209785,8.6160674
GQ,Centro Sur Province,GQ-CS,1.3436084,10.439656
GQ,Insular Region,GQ-I,37.09024,-95.712891
GQ,Kié-Ntem Province,GQ-KN,2.028093,11.0711758
GQ,Litoral Province,GQ-LI,1.5750244,9.8124935
GQ,Río Muni,GQ-C,1.4610606,9.6786894
GQ,Wele-Nzas Province,GQ-WN,1.4166162,11.0711758
ER,Anseba Region,ER-AN,16.4745531,37.8087693
ER,Debub Region,ER-DU,14.9478692,39.1543677
ER,Gash-Barka Region,ER-GB,15.4068825,37.6386622
ER,Maekel Region,ER-MA,15.3551409,38.8623683
ER,Northern Red Sea Region,ER-SK,16.2583997,38.8205454
ER,Southern Red Sea Region,ER-DK,13.5137103,41.7606472
EE,Harju County,EE-37,59.3334239,25.2466974
EE,Hiiu County,EE-39,58.9239553,22.5919468
EE,Ida-Viru County,EE-44,59.2592663,27.4136535
EE,Järva County,EE-51,58.8866713,25.5000624
EE,Jõgeva County,EE-49,58.7506143,26.3604878
EE,Lääne County,EE-57,58.9722742,23.8740834
EE,Lääne-Viru County,EE-59,59.3018816,26.3280312
EE,Pärnu County,EE-67,58.5261952,24.4020159
EE,Põlva County,EE-65,58.1160622,27.2066394
EE,Rapla County,EE-70,58.8492625,24.7346569
EE,Saare County,EE-74,58.4849721,22.6136408
EE,Tartu County,EE-78,58.4057128,26.801576
EE,Valga County,EE-82,57.9103441,26.1601819
EE,Viljandi County,EE-84,58.2821746,25.5752233
EE,Võru County,EE-86,57.7377372,27.1398938
ET,Addis Ababa,ET-AA,8.9806034,38.7577605
ET,Afar Region,ET-AF,11.7559388,40.958688
ET,Amhara Region,ET-AM,11.3494247,37.9784585
ET,Benishangul-Gumuz Region,ET-BE,10.7802889,35.5657862
ET,Dire Dawa,ET-DD,9.6008747,41.850142
ET,Gambela Region,ET-GA,7.9219687,34.1531947
ET,Harari Region,ET-HA,9.314866,42.1967716
ET,Oromia Region,ET-OR,7.5460377,40.6346851
ET,Somali Region,ET-SO,6.6612293,43.7908453
ET,"Southern Nations, Nationalities, and Peoples' Region",ET-SN,6.5156911,36.954107
ET,Tigray Region,ET-TI,14.0323336,38.3165725
FJ,Ba,FJ-1,36.0613893,-95.8005872
FJ,Bua,FJ-2,43.0964584,-89.50088
FJ,Cakaudrove,FJ-3,-16.5814105,179.5120084
FJ,Central Division,FJ-C,34.0440066,-118.2472738
FJ,Eastern Division,FJ-E,32.8094305,-117.1289937
FJ,Kadavu,FJ-4,-19.0127122,178.1876676
FJ,Lau,FJ-5,31.6687015,-106.3955763
FJ,Lomaiviti,FJ-6,-17.709,179.091
FJ,Macuata,FJ-7,-16.4864922,179.2847251
FJ,Nadroga-Navosa,FJ-8,-17.9865278,177.658113
FJ,Naitasiri,FJ-9,-17.8975754,178.2071598
FJ,Namosi,FJ-10,-18.0864176,178.1291387
FJ,Northern Division,FJ-N,32.8768766,-117.2156345
FJ,Ra,FJ-11,37.1003153,-95.6744246
FJ,Rewa,FJ-12,34.7923517,-82.3609264
FJ,Rotuma,FJ-R,-12.5025069,177.0724164
FJ,Serua,FJ-13,-18.1804749,178.050979
FJ,Tailevu,FJ-14,-17.8269111,178.293248
FJ,Western Division,FJ-W,42.9662198,-78.7021134
FI,Åland Islands,FI-1,60.1785247,19.9156105
FI,Central Finland,FI-8,62.5666743,25.5549445
FI,Central Ostrobothnia,FI-7,63.5621735,24.0013631
FI,Eastern Finland Province,FI-IS,62.5633891,28.5024042
FI,Finland Proper,FI-19,60.3627914,22.4439369
FI,Kainuu,FI-5,64.3736564,28.7437475
FI,Kymenlaakso,FI-9,60.780512,26.8829336
FI,Lapland,FI-LL,67.9222304,26.5046438
FI,North Karelia,FI-13,62.8062078,30.1553887
FI,Northern Ostrobothnia,FI-14,65.279493,26.2890417
FI,Northern Savonia,FI-15,63.08448,27.0253504
FI,Ostrobothnia,FI-12,63.1181757,21.9061062
FI,Oulu Province,FI-OL,65.0120748,25.4650496
FI,Päijänne Tavastia,FI-16,61.3230041,25.7322496
FI,Pirkanmaa,FI-11,61.6986918,23.7895598
FI,Satakunta,FI-17,61.5932758,22.1483081
FI,South Karelia,FI-2,61.1181949,28.1024372
FI,Southern Ostrobothnia,FI-3,62.9433099,23.5285267
FI,Southern Savonia,FI-4,61.6945148,27.8005015
FI,Tavastia Proper,FI-6,60.907015,24.3005498
FI,Uusimaa,FI-18,60.21872,25.271621
FR,Alo,FR-WF-AL,40.7158362,-73.9596317
FR,Alsace,FR-A,48.3181795,7.4416241
FR,Aquitaine,FR-B,44.7002222,-0.2995785
FR,Auvergne,FR-C,45.7032695,3.3448536
FR,Auvergne-Rhône-Alpes,FR-ARA,45.4471431,4.3852507
FR,Bourgogne-Franche-Comté,FR-BFC,47.2805127,4.9994372
FR,Brittany,FR-BRE,48.2020471,-2.9326435
FR,Burgundy,FR-D,47.0525047,4.3837215
FR,Centre-Val de Loire,FR-CVL,47.7515686,1.6750631
FR,Champagne-Ardenne,FR-G,48.7934092,4.4725249
FR,Corsica,FR-COR,42.0396042,9.0128926
FR,Franche-Comté,FR-I,47.1343207,6.0223016
FR,French Guiana,FR-GF,3.933889,-53.125782
FR,French Polynesia,FR-PF,-17.679742,-149.406843
FR,Grand Est,FR-GES,48.699803,6.1878074
FR,Guadeloupe,FR-GP,16.265,-61.551
FR,Hauts-de-France,FR-HDF,50.4801153,2.7937265
FR,Île-de-France,FR-IDF,48.8499198,2.6370411
FR,Languedoc-Roussillon,FR-K,43.5912356,3.2583626
FR,Limousin,FR-L,45.8932231,1.5696018
FR,Lorraine,FR-M,48.8744233,6.2080932
FR,Lower Normandy,FR-P,48.8788472,-0.5157492
FR,Martinique,FR-MQ,14.641528,-61.024174
FR,Mayotte,FR-YT,-12.8275,45.166244
FR,Nord-Pas-de-Calais,FR-O,50.4801153,2.7937265
FR,Normandy,FR-NOR,48.8798704,0.1712529
FR,Nouvelle-Aquitaine,FR-NAQ,45.7087182,0.626891
FR,Occitania,FR-OCC,43.8927232,3.2827625
FR,Paris,FR-75,48.856614,2.3522219
FR,Pays de la Loire,FR-PDL,47.7632836,-0.3299687
FR,Picardy,FR-S,49.6636127,2.5280732
FR,Poitou-Charentes,FR-T,45.903552,-0.3091837
FR,Provence-Alpes-Côte d'Azur,FR-PAC,43.9351691,6.0679194
FR,Réunion,FR-RE,-21.115141,55.536384
FR,Rhône-Alpes,FR-V,45.6402905,5.6864994
FR,Saint Barthélemy,FR-BL,17.9005134,-62.8205871
FR,Saint Martin,FR-MF,18.0708298,-63.0500809
FR,Saint Pierre and Miquelon,FR-PM,46.8852,-56.3159
FR,Sigave,FR-WF-SG,-14.2732592,-178.16329
FR,Upper Normandy,FR-Q,49.524641,0.8828329
FR,Uvea,FR-WF-UV,41.983298,-87.668362
FR,Wallis and Futuna,FR-WF,-14.2938,-178.1165
GA,Estuaire Province,GA-1,0.4432864,10.0807298
GA,Haut-Ogooué Province,GA-2,-1.4762544,13.914399
GA,Moyen-Ogooué Province,GA-3,-0.442784,10.439656
GA,Ngounié Province,GA-4,-1.4930303,10.9807003
GA,Nyanga Province,GA-5,-2.8821033,11.1617356
GA,Ogooué-Ivindo Province,GA-6,0.8818311,13.1740348
GA,Ogooué-Lolo Province,GA-7,-0.8844093,12.4380581
GA,Ogooué-Maritime Province,GA-8,-1.3465975,9.7232673
GA,Woleu-Ntem Province,GA-9,2.2989827,11.4466914
GM,Banjul,GM-B,13.4548761,-16.5790323
GM,Central River Division,GM-M,13.5994469,-14.8921668
GM,Lower River Division,GM-L,13.3553306,-15.92299
GM,North Bank Division,GM-N,13.5285436,-16.0169971
GM,Upper River Division,GM-U,13.4257366,-14.0072348
GM,West Coast Division,GM-W,5.9772798,116.0754288
GE,Adjara,GE-AJ,41.6005626,42.0688383
GE,Autonomous Republic of Abkhazia,GE-AB,43.0015544,41.023407
GE,Guria,GE-GU,41.9442736,42.0458091
GE,Imereti,GE-IM,42.230108,42.9008664
GE,Kakheti,GE-KA,41.6481602,45.6905554
GE,Khelvachauri Municipality,GE-29,41.5801926,41.6610742
GE,Kvemo Kartli,GE-KK,41.4791833,44.6560451
GE,Mtskheta-Mtianeti,GE-MM,42.1682185,44.6506058
GE,Racha-Lechkhumi and Kvemo Svaneti,GE-RL,42.6718873,43.0562836
GE,Samegrelo-Zemo Svaneti,GE-SZ,42.7352247,42.1689362
GE,Samtskhe-Javakheti,GE-SJ,41.5479296,43.27764
GE,Senaki Municipality,GE-50,42.269636,42.0656896
GE,Shida Kartli,GE-SK,42.0756944,43.9540462
GE,Tbilisi,GE-TB,41.7151377,44.827096
DE,Baden-Württemberg,DE-BW,48.6616037,9.3501336
DE,Bavaria,DE-BY,48.7904472,11.4978895
DE,Berlin,DE-BE,52.5200066,13.404954
DE,Brandenburg,DE-BB,52.4125287,12.5316444
DE,Bremen,DE-HB,53.0792962,8.8016936
DE,Hamburg,DE-HH,53.5510846,9.9936819
DE,Hesse,DE-HE,50.6520515,9.1624376
DE,Lower Saxony,DE-NI,52.6367036,9.8450766
DE,Mecklenburg-Vorpommern,DE-MV,53.6126505,12.4295953
DE,North Rhine-Westphalia,DE-NW,51.4332367,7.6615938
DE,Rhineland-Palatinate,DE-RP,50.118346,7.3089527
DE,Saarland,DE-SL,49.3964234,7.0229607
DE,Saxony,DE-SN,51.1045407,13.2017384
DE,Saxony-Anhalt,DE-ST,51.9502649,11.6922734
DE,Schleswig-Holstein,DE-SH,54.2193672,9.6961167
DE,Thuringia,DE-TH,51.0109892,10.845346
GH,Ashanti Region,GH-AH,6.7470436,-1.5208624
GH,Brong-Ahafo Region,GH-BA,7.9559247,-1.6760691
GH,Central Region,GH-CP,,
GH,Eastern Region,GH-EP,,
GH,Greater Accra Region,GH-AA,5.8142836,0.0746767
GH,Northern Region,GH-NP,,
GH,Upper East Region,GH-UE,10.7082499,-0.9820668
GH,Upper West Region,GH-UW,10.2529757,-2.1450245
GH,Volta Region,GH-TV,6.5781373,0.4502368
GH,Western Region,GH-WP,,
GR,Achaea Regional Unit,GR-13,38.1158729,21.9522491
GR,Aetolia-Acarnania Regional Unit,GR-1,38.7084386,21.3798928
GR,Arcadia Prefecture,GR-12,37.5557825,22.3337769
GR,Argolis Regional Unit,GR-11,,
GR,Attica Region,GR-I,38.0457568,23.8584737
GR,Boeotia Regional Unit,GR-3,38.3663664,23.0965064
GR,Central Greece Region,GR-H,38.6043984,22.7152131
GR,Central Macedonia,GR-B,40.621173,23.1918021
GR,Chania Regional Unit,GR-94,35.5138298,24.0180367
GR,Corfu Prefecture,GR-22,39.6249838,19.9223461
GR,Corinthia Regional Unit,GR-15,,
GR,Crete Region,GR-M,35.240117,24.8092691
GR,Drama Regional Unit,GR-52,41.2340023,24.2390498
GR,East Attica Regional Unit,GR-A2,38.2054093,23.8584737
GR,East Macedonia and Thrace,GR-A,41.1295126,24.8877191
GR,Epirus Region,GR-D,39.5706413,20.7642843
GR,Euboea,GR-4,38.5236036,23.8584737
GR,Grevena Prefecture,GR-51,40.0837626,21.4273299
GR,Imathia Regional Unit,GR-53,40.6060067,22.1430215
GR,Ioannina Regional Unit,GR-33,39.6650288,20.8537466
GR,Ionian Islands Region,GR-F,37.9694898,21.3802372
GR,Karditsa Regional Unit,GR-41,39.3640258,21.9214049
GR,Kastoria Regional Unit,GR-56,40.5192691,21.2687171
GR,Kefalonia Prefecture,GR-23,38.1753675,20.5692179
GR,Kilkis Regional Unit,GR-57,40.9937071,22.8753674
GR,Kozani Prefecture,GR-58,40.3005586,21.7887737
GR,Laconia,GR-16,43.5278546,-71.4703509
GR,Larissa Prefecture,GR-42,39.6390224,22.4191254
GR,Lefkada Regional Unit,GR-24,38.8333663,20.7069108
GR,Pella Regional Unit,GR-59,40.9148039,22.1430215
GR,Peloponnese Region,GR-J,37.5079472,22.37349
GR,Phthiotis Prefecture,GR-6,38.999785,22.3337769
GR,Preveza Prefecture,GR-34,38.9592649,20.7517155
GR,Serres Prefecture,GR-62,41.0863854,23.5483819
GR,South Aegean,GR-L,37.0855302,25.1489215
GR,Thessaloniki Regional Unit,GR-54,40.6400629,22.9444191
GR,West Greece Region,GR-G,38.5115496,21.5706786
GR,West Macedonia Region,GR-C,40.3004058,21.7903559
GD,Carriacou and Petite Martinique,GD-10,12.4785888,-61.4493842
GD,Saint Andrew Parish,GD-1,,
GD,Saint David Parish,GD-2,,
GD,Saint George Parish,GD-3,,
GD,Saint John Parish,GD-4,30.1118331,-90.4879916
GD,Saint Mark Parish,GD-5,40.5881863,-73.9495701
GD,Saint Patrick Parish,GD-6,,
GT,Alta Verapaz Department,GT-AV,15.5942883,-90.1494988
GT,Baja Verapaz Department,GT-BV,15.1255867,-90.3748354
GT,Chimaltenango Department,GT-CM,14.5634787,-90.9820668
GT,Chiquimula Department,GT-CQ,14.7514999,-89.4742177
GT,El Progreso Department,GT-PR,14.9388732,-90.0746767
GT,Escuintla Department,GT-ES,14.1910912,-90.9820668
GT,Guatemala Department,GT-GU,14.5649401,-90.5257823
GT,Huehuetenango Department,GT-HU,15.5879914,-91.6760691
GT,Izabal Department,GT-IZ,15.4976517,-88.864698
GT,Jalapa Department,GT-JA,14.6121446,-89.9626799
GT,Jutiapa Department,GT-JU,14.1930802,-89.9253233
GT,Petén Department,GT-PE,16.912033,-90.2995785
GT,Quetzaltenango Department,GT-QZ,14.792433,-91.714958
GT,Quiché Department,GT-QC,15.4983808,-90.9820668
GT,Retalhuleu Department,GT-RE,14.5245485,-91.685788
GT,Sacatepéquez Department,GT-SA,14.5178379,-90.7152749
GT,San Marcos Department,GT-SM,14.9309569,-91.9099238
GT,Santa Rosa Department,GT-SR,38.4405759,-122.7037543
GT,Sololá Department,GT-SO,14.748523,-91.2891036
GT,Suchitepéquez Department,GT-SU,14.4215982,-91.4048249
GT,Totonicapán Department,GT-TO,14.9173402,-91.3613923
GN,Beyla Prefecture,GN-BE,8.9198178,-8.3088441
GN,Boffa Prefecture,GN-BF,10.1808254,-14.0391615
GN,Boké Prefecture,GN-BK,11.0847379,-14.3791912
GN,Boké Region,GN-B,11.1864672,-14.1001326
GN,Conakry,GN-C,9.6411855,-13.5784012
GN,Coyah Prefecture,GN-CO,9.7715535,-13.3125299
GN,Dabola Prefecture,GN-DB,10.7297806,-11.1107854
GN,Dalaba Prefecture,GN-DL,10.6868176,-12.2490697
GN,Dinguiraye Prefecture,GN-DI,11.6844222,-10.8000051
GN,Dubréka Prefecture,GN-DU,9.7907348,-13.5147735
GN,Faranah Prefecture,GN-FA,9.9057399,-10.8000051
GN,Forécariah Prefecture,GN-FO,9.3886187,-13.0817903
GN,Fria Prefecture,GN-FR,10.3674543,-13.5841871
GN,Gaoual Prefecture,GN-GA,11.5762804,-13.3587288
GN,Guéckédou Prefecture,GN-GU,8.5649688,-10.1311163
GN,Kankan Prefecture,GN-KA,10.3034465,-9.3673084
GN,Kankan Region,GN-K,10.120923,-9.5450974
GN,Kérouané Prefecture,GN-KE,9.2536643,-9.0128926
GN,Kindia Prefecture,GN-KD,10.1013292,-12.7135121
GN,Kindia Region,GN-D,10.1781694,-12.989615
GN,Kissidougou Prefecture,GN-KS,9.2252022,-10.0807298
GN,Koubia Prefecture,GN-KB,11.582354,-11.8920237
GN,Koundara Prefecture,GN-KN,12.4894021,-13.3067562
GN,Kouroussa Prefecture,GN-KO,10.6489229,-9.8850586
GN,Labé Prefecture,GN-LA,11.3541939,-12.3463875
GN,Labé Region,GN-L,11.3232042,-12.2891314
GN,Lélouma Prefecture,GN-LE,11.183333,-12.933333
GN,Lola Prefecture,GN-LO,7.9613818,-8.3964938
GN,Macenta Prefecture,GN-MC,8.4615795,-9.2785583
GN,Mali Prefecture,GN-ML,11.983709,-12.2547919
GN,Mamou Prefecture,GN-MM,10.5736024,-11.8891721
GN,Mamou Region,GN-M,10.5736024,-11.8891721
GN,Mandiana Prefecture,GN-MD,10.6172827,-8.6985716
GN,Nzérékoré Prefecture,GN-NZ,7.7478359,-8.8252502
GN,Nzérékoré Region,GN-N,8.038587,-8.8362755
GN,Pita Prefecture,GN-PI,10.8062086,-12.7135121
GN,Siguiri Prefecture,GN-SI,11.4148113,-9.1788304
GN,Télimélé Prefecture,GN-TE,10.9089364,-13.0299331
GN,Tougué Prefecture,GN-TO,11.3841583,-11.6157773
GN,Yomou Prefecture,GN-YO,7.5696279,-9.2591571
GW,Bafatá,GW-BA,12.1735243,-14.652952
GW,Biombo Region,GW-BM,11.8529061,-15.7351171
GW,Bolama Region,GW-BL,11.1480591,-16.1345705
GW,Cacheu Region,GW-CA,12.0551416,-16.0640179
GW,Gabú Region,GW-GA,11.8962488,-14.1001326
GW,Leste Province,GW-L,,
GW,Norte Province,GW-N,7.8721811,123.8857747
GW,Oio Region,GW-OI,12.2760709,-15.3131185
GW,Quinara Region,GW-QU,11.795562,-15.1726816
GW,Sul Province,GW-S,-10.2866578,20.7122465
GW,Tombali Region,GW-TO,11.3632696,-14.9856176
GY,Barima-Waini,GY-BA,7.4882419,-59.6564494
GY,Cuyuni-Mazaruni,GY-CU,6.4642141,-60.2110752
GY,Demerara-Mahaica,GY-DE,6.546426,-58.0982046
GY,East Berbice-Corentyne,GY-EB,2.7477922,-57.4627259
GY,Essequibo Islands-West Demerara,GY-ES,6.5720132,-58.4629997
GY,Mahaica-Berbice,GY-MA,6.238496,-57.9162555
GY,Pomeroon-Supenaam,GY-PM,7.1294166,-58.9206295
GY,Potaro-Siparuni,GY-PT,4.7855853,-59.2879977
GY,Upper Demerara-Berbice,GY-UD,5.3064879,-58.1892921
GY,Upper Takutu-Upper Essequibo,GY-UT,2.9239595,-58.7373634
HT,Artibonite,HT-AR,19.362902,-72.4258145
HT,Centre,HT-CE,32.8370251,-96.7773882
HT,Grand'Anse,HT-GA,12.0166667,-61.7666667
HT,Nippes,HT-NI,18.3990735,-73.4180211
HT,Nord,HT-ND,43.190526,-89.437921
HT,Nord-Est,HT-NE,19.4889723,-71.8571331
HT,Nord-Ouest,HT-NO,19.8374009,-73.0405277
HT,Ouest,HT-OU,45.4547249,-73.6502365
HT,Sud,HT-SD,29.9213248,-90.0973772
HT,Sud-Est,HT-SE,18.2783598,-72.3547915
HN,Atlántida Department,HN-AT,15.6696283,-87.1422895
HN,Bay Islands Department,HN-IB,16.4826614,-85.8793252
HN,Choluteca Department,HN-CH,13.2504325,-87.1422895
HN,Colón Department,HN-CL,15.6425965,-85.520024
HN,Comayagua Department,HN-CM,14.5534828,-87.6186379
HN,Copán Department,HN-CP,14.9360838,-88.864698
HN,Cortés Department,HN-CR,15.4923508,-88.0900762
HN,El Paraíso Department,HN-EP,13.9821294,-86.4996546
HN,Francisco Morazán Department,HN-FM,14.45411,-87.0624261
HN,Gracias a Dios Department,HN-GD,15.341806,-84.6060449
HN,Intibucá Department,HN-IN,14.372734,-88.2461183
HN,La Paz Department,HN-LP,-15.0892416,-68.5247149
HN,Lempira Department,HN-LE,14.1887698,-88.556531
HN,Ocotepeque Department,HN-OC,14.5170347,-89.0561532
HN,Olancho Department,HN-OL,14.8067406,-85.7666645
HN,Santa Bárbara Department,HN-SB,15.1202795,-88.4016041
HN,Valle Department,HN-VA,13.5782936,-87.5791287
HN,Yoro Department,HN-YO,15.2949679,-87.1422895
HK,Central and Western District,HK-HCW,22.28666,114.15497
HK,Eastern,HK-HEA,22.28411,114.22414
HK,Islands District,HK-NIS,22.26114,113.94608
HK,Kowloon City,HK-KKC,22.3282,114.19155
HK,Kwai Tsing,HK-NKT,22.35488,114.08401
HK,Kwun Tong,HK-KKT,22.31326,114.22581
HK,North,HK-NNO,22.49471,114.13812
HK,Sai Kung District,HK-NSK,22.38143,114.27052
HK,Sha Tin,HK-NST,22.38715,114.19534
HK,Sham Shui Po,HK-KSS,22.33074,114.1622
HK,Southern,HK-HSO,22.24725,114.15884
KH,Tai Po District,KH-NTP,22.45085,114.16422
HK,Tsuen Wan District,HK-NTW,22.36281,114.12907
HK,Tuen Mun,HK-NTM,22.39163,113.9770885
HK,Wan Chai,HK-HWC,22.27968,114.17168
HK,Wong Tai Sin,HK-KWT,22.33353,114.19686
HK,Yau Tsim Mong,HK-KYT,22.32138,114.1726
HK,Yuen Long District,HK-NYL,22.44559,114.02218
HU,Bács-Kiskun County,HU-BK,46.5661437,19.4272464
HU,Baranya County,HU-BA,46.0484585,18.2719173
HU,Békés County,HU-BE,46.6704899,21.0434996
HU,Békéscsaba,HU-BC,46.6735939,21.0877309
HU,Borsod-Abaúj-Zemplén County,HU-BZ,48.2939401,20.6934112
HU,Budapest,HU-BU,47.497912,19.040235
HU,Csongrád County,HU-CS,46.416705,20.2566161
HU,Debrecen,HU-DE,47.5316049,21.6273124
HU,Dunaújváros,HU-DU,46.9619059,18.9355227
HU,Eger,HU-EG,47.9025348,20.3772284
HU,Érd,HU-ER,47.3919718,18.904544
HU,Fejér County,HU-FE,47.1217932,18.5294815
HU,Győr,HU-GY,47.6874569,17.6503974
HU,Győr-Moson-Sopron County,HU-GS,47.6509285,17.2505883
HU,Hajdú-Bihar County,HU-HB,47.4688355,21.5453227
HU,Heves County,HU-HE,47.8057617,20.2038559
HU,Hódmezővásárhely,HU-HV,46.4181262,20.3300315
HU,Jász-Nagykun-Szolnok County,HU-JN,47.2555579,20.5232456
HU,Kaposvár,HU-KV,46.3593606,17.7967639
HU,Kecskemét,HU-KM,46.8963711,19.6896861
HU,Miskolc,HU-MI,48.1034775,20.7784384
HU,Nagykanizsa,HU-NK,46.4590218,16.9896796
HU,Nógrád County,HU-NO,47.9041031,19.0498504
HU,Nyíregyháza,HU-NY,47.9495324,21.7244053
HU,Pécs,HU-PS,46.0727345,18.232266
HU,Pest County,HU-PE,47.4480001,19.4618128
HU,Salgótarján,HU-ST,48.0935237,19.7999813
HU,Somogy County,HU-SO,46.554859,17.5866732
HU,Sopron,HU-SN,47.6816619,16.5844795
HU,Szabolcs-Szatmár-Bereg County,HU-SZ,48.0394954,22.00333
HU,Szeged,HU-SD,46.2530102,20.1414253
HU,Székesfehérvár,HU-SF,47.1860262,18.4221358
HU,Szekszárd,HU-SS,46.3474326,18.7062293
HU,Szolnok,HU-SK,47.1621355,20.1824712
HU,Szombathely,HU-SH,47.2306851,16.6218441
HU,Tatabánya,HU-TB,47.569246,18.404818
HU,Tolna County,HU-TO,46.4762754,18.5570627
HU,Vas County,HU-VA,47.0929111,16.6812183
HU,Veszprém,HU-VM,47.1028087,17.9093019
HU,Veszprém County,HU-VE,47.0930974,17.9100763
HU,Zala County,HU-ZA,46.7384404,16.9152252
HU,Zalaegerszeg,HU-ZE,46.8416936,16.8416322
IS,Capital Region,IS-1,38.5656957,-92.1816949
IS,Eastern Region,IS-7,,
IS,Northeastern Region,IS-6,43.2994285,-74.2179326
IS,Northwestern Region,IS-5,41.9133932,-73.0471688
IS,Southern Peninsula Region,IS-2,63.9154803,-22.3649667
IS,Southern Region,IS-8,,
IS,Western Region,IS-3,,
IS,Westfjords,IS-4,65.919615,-21.8811764
IN,Andaman and Nicobar Islands,IN-AN,11.7400867,92.6586401
IN,Andhra Pradesh,IN-AP,15.9128998,79.7399875
IN,Arunachal Pradesh,IN-AR,28.2179994,94.7277528
IN,Assam,IN-AS,26.2006043,92.9375739
IN,Bihar,IN-BR,25.0960742,85.3131194
IN,Chandigarh,IN-CH,30.7333148,76.7794179
IN,Chhattisgarh,IN-CT,21.2786567,81.8661442
IN,Dadra and Nagar Haveli and Daman and Diu,IN-DH,20.3973736,72.8327991
IN,Delhi,IN-DL,28.7040592,77.1024902
IN,Goa,IN-GA,15.2993265,74.123996
IN,Gujarat,IN-GJ,22.258652,71.1923805
IN,Haryana,IN-HR,29.0587757,76.085601
IN,Himachal Pradesh,IN-HP,31.1048294,77.1733901
IN,Jammu and Kashmir,IN-JK,33.277839,75.3412179
IN,Jharkhand,IN-JH,23.6101808,85.2799354
IN,Karnataka,IN-KA,15.3172775,75.7138884
IN,Kerala,IN-KL,10.8505159,76.2710833
IN,Ladakh,IN-LA,34.2268475,77.5619419
IN,Lakshadweep,IN-LD,10.3280265,72.7846336
IN,Madhya Pradesh,IN-MP,22.9734229,78.6568942
IN,Maharashtra,IN-MH,19.7514798,75.7138884
IN,Manipur,IN-MN,24.6637173,93.9062688
IN,Meghalaya,IN-ML,25.4670308,91.366216
IN,Mizoram,IN-MZ,23.164543,92.9375739
IN,Nagaland,IN-NL,26.1584354,94.5624426
IN,Odisha,IN-OR,20.9516658,85.0985236
IN,Puducherry,IN-PY,11.9415915,79.8083133
IN,Punjab,IN-PB,,
IN,Rajasthan,IN-RJ,27.0238036,74.2179326
IN,Sikkim,IN-SK,27.5329718,88.5122178
IN,Tamil Nadu,IN-TN,11.1271225,78.6568942
IN,Telangana,IN-TG,18.1124372,79.0192997
IN,Tripura,IN-TR,23.9408482,91.9881527
IN,Uttar Pradesh,IN-UP,26.8467088,80.9461592
IN,Uttarakhand,IN-UT,30.066753,79.0192997
IN,West Bengal,IN-WB,22.9867569,87.8549755
ID,Aceh,ID-AC,4.695135,96.7493993
ID,Bali,ID-BA,-8.3405389,115.0919509
ID,Bangka Belitung Islands,ID-BB,-2.7410513,106.4405872
ID,Banten,ID-BT,-6.4058172,106.0640179
ID,Bengkulu,ID-BE,-3.7928451,102.2607641
ID,Central Java,ID-JT,-7.150975,110.1402594
ID,Central Kalimantan,ID-KT,-1.6814878,113.3823545
ID,Central Sulawesi,ID-ST,-1.4300254,121.4456179
ID,East Java,ID-JI,-7.5360639,112.2384017
ID,East Kalimantan,ID-KI,0.5386586,116.419389
ID,East Nusa Tenggara,ID-NT,-8.6573819,121.0793705
ID,Gorontalo,ID-GO,0.5435442,123.0567693
ID,Jakarta,ID-JK,-6.2087634,106.845599
ID,Jambi,ID-JA,-1.6101229,103.6131203
ID,Kalimantan,ID-KA,0.9618834,114.5548495
ID,Lampung,ID-LA,-4.5585849,105.4068079
ID,Lesser Sunda Islands,ID-NU,-9,120
ID,Maluku,ID-MA,-3.2384616,130.1452734
ID,Maluku Islands,ID-ML,-2.8646166,129.5765974
ID,North Kalimantan,ID-KU,3.0730929,116.0413889
ID,North Maluku,ID-MU,1.5709993,127.8087693
ID,North Sulawesi,ID-SA,0.6246932,123.9750018
ID,North Sumatra,ID-SU,2.1153547,99.5450974
ID,Papua,ID-PA,-5.0122202,141.3470159
ID,Riau,ID-RI,0.2933469,101.7068294
ID,Riau Islands,ID-KR,3.9456514,108.1428669
ID,South Kalimantan,ID-KS,-3.0926415,115.2837585
ID,South Sulawesi,ID-SN,-3.6687994,119.9740534
ID,South Sumatra,ID-SS,-3.3194374,103.914399
ID,Southeast Sulawesi,ID-SG,-4.14491,122.174605
ID,Special Region of Yogyakarta,ID-YO,-7.8753849,110.4262088
ID,Sulawesi,ID-SL,-1.8479,120.5279
ID,Sumatra,ID-SM,-0.589724,101.3431058
ID,West Java,ID-JB,-7.090911,107.668887
ID,West Nusa Tenggara,ID-NB,-8.6529334,117.3616476
ID,West Papua,ID-PB,-1.3361154,133.1747162
ID,West Sulawesi,ID-SR,-2.8441371,119.2320784
ID,West Sumatra,ID-SB,-0.7399397,100.8000051
IR,Alborz Province,IR-30,35.9960467,50.9289246
IR,Ardabil Province,IR-24,38.4853276,47.8911209
IR,Bushehr Province,IR-18,28.7620739,51.5150077
IR,Chaharmahal and Bakhtiari Province,IR-14,31.9970419,50.6613849
IR,East Azerbaijan Province,IR-3,37.9035733,46.2682109
IR,Fars Province,IR-7,29.1043813,53.045893
IR,Gilan Province,IR-1,37.2809455,49.5924134
IR,Golestan Province,IR-27,37.2898123,55.1375834
IR,Hamadan Province,IR-13,34.9193607,47.4832925
IR,Hormozgan Province,IR-22,27.138723,55.1375834
IR,Ilam Province,IR-16,33.2957618,46.670534
IR,Isfahan Province,IR-10,33.2771073,52.3613378
IR,Kerman Province,IR-8,29.4850089,57.6439048
IR,Kermanshah Province,IR-5,34.4576233,46.670534
IR,Khuzestan Province,IR-6,31.4360149,49.041312
IR,Kohgiluyeh and Boyer-Ahmad Province,IR-17,30.724586,50.8456323
IR,Kurdistan Province,IR-12,35.9553579,47.1362125
IR,Lorestan Province,IR-15,33.5818394,48.3988186
IR,Markazi Province,IR-0,34.612305,49.8547266
IR,Mazandaran Province,IR-2,36.2262393,52.5318604
IR,North Khorasan Province,IR-28,37.4710353,57.1013188
IR,Qazvin Province,IR-26,36.0881317,49.8547266
IR,Qom Province,IR-25,34.6415764,50.8746035
IR,Razavi Khorasan Province,IR-9,35.1020253,59.1041758
IR,Semnan Province,IR-20,35.2255585,54.4342138
IR,Sistan and Baluchestan,IR-11,27.5299906,60.5820676
IR,South Khorasan Province,IR-29,32.5175643,59.1041758
IR,Tehran Province,IR-23,35.7248416,51.381653
IR,West Azarbaijan Province,IR-4,37.4550062,45
IR,Yazd Province,IR-21,32.1006387,54.4342138
IR,Zanjan Province,IR-19,36.5018185,48.3988186
IQ,Al Anbar Governorate,IQ-AN,32.5597614,41.9196471
IQ,Al Muthanna Governorate,IQ-MU,29.9133171,45.2993862
IQ,Al-Qādisiyyah Governorate,IQ-QA,32.043691,45.1494505
IQ,Babylon Governorate,IQ-BB,32.468191,44.5501935
IQ,Baghdad Governorate,IQ-BG,33.3152618,44.3660653
IQ,Basra Governorate,IQ-BA,30.5114252,47.8296253
IQ,Dhi Qar Governorate,IQ-DQ,31.1042292,46.3624686
IQ,Diyala Governorate,IQ-DI,33.7733487,45.1494505
IQ,Dohuk Governorate,IQ-DA,36.9077252,43.0631689
IQ,Erbil Governorate,IQ-AR,36.5570628,44.3851263
IQ,Karbala Governorate,IQ-KA,32.4045493,43.8673222
IQ,Kirkuk Governorate,IQ-KI,35.3292014,43.9436788
IQ,Maysan Governorate,IQ-MA,31.8734002,47.1362125
IQ,Najaf Governorate,IQ-NA,31.3517486,44.0960311
IQ,Nineveh Governorate,IQ-NI,36.229574,42.2362435
IQ,Saladin Governorate,IQ-SD,34.5337527,43.483738
IQ,Sulaymaniyah Governorate,IQ-SU,35.5466348,45.3003683
IQ,Wasit Governorate,IQ-WA,32.6024094,45.7520985
IE,Connacht,IE-C,53.8376243,-8.9584481
IE,County Carlow,IE-CW,52.7232217,-6.8108295
IE,County Cavan,IE-CN,53.9765424,-7.2996623
IE,County Clare,IE-CE,43.04664,-87.899581
IE,County Cork,IE-CO,51.8985143,-8.4756035
IE,County Donegal,IE-DL,54.6548993,-8.1040967
IE,County Dublin,IE-D,53.3498053,-6.2603097
IE,County Galway,IE-G,53.3564509,-8.8534113
IE,County Kerry,IE-KY,52.1544607,-9.5668633
IE,County Kildare,IE-KE,53.2120434,-6.8194708
IE,County Kilkenny,IE-KK,52.5776957,-7.218002
IE,County Laois,IE-LS,52.994295,-7.3323007
IE,County Limerick,IE-LK,52.5090517,-8.7474955
IE,County Longford,IE-LD,53.7274982,-7.7931527
IE,County Louth,IE-LH,53.9252324,-6.4889423
IE,County Mayo,IE-MO,54.0152604,-9.4289369
IE,County Meath,IE-MH,53.605548,-6.6564169
IE,County Monaghan,IE-MN,54.2492046,-6.9683132
IE,County Offaly,IE-OY,53.2356871,-7.7122229
IE,County Roscommon,IE-RN,53.7592604,-8.2681621
IE,County Sligo,IE-SO,54.1553277,-8.6064532
IE,County Tipperary,IE-TA,52.4737894,-8.1618514
IE,County Waterford,IE-WD,52.1943549,-7.6227512
IE,County Westmeath,IE-WH,53.5345308,-7.4653217
IE,County Wexford,IE-WX,52.4793603,-6.5839913
IE,County Wicklow,IE-WW,52.9862313,-6.3672543
IE,Leinster,IE-L,53.3271538,-7.5140841
IE,Munster,IE-M,51.9471197,7.584532
IE,Ulster,IE-U,54.7616555,-6.9612273
IL,Central District,IL-M,47.6087583,-122.2964235
IL,Haifa District,IL-HA,32.4814111,34.994751
IL,Jerusalem District,IL-JM,31.7648243,34.994751
IL,Northern District,IL-Z,36.1511864,-95.9951763
IL,Southern District,IL-D,40.7137586,-74.0009059
IL,Tel Aviv District,IL-TA,32.0929075,34.8072165
IT,Abruzzo,IT-65,42.1920119,13.7289167
IT,Aosta Valley,IT-23,45.7388878,7.4261866
IT,Apulia,IT-75,40.7928393,17.1011931
IT,Basilicata,IT-77,40.6430766,15.9699878
IT,Benevento Province,IT-BN,41.2035093,14.7520939
IT,Calabria,IT-78,39.3087714,16.3463791
IT,Campania,IT-72,40.6670887,15.1068113
IT,Emilia-Romagna,IT-45,44.5967607,11.2186396
IT,Friuli–Venezia Giulia,IT-36,46.2259177,13.1033646
IT,Lazio,IT-62,45.6991667,-73.6558333
IT,Libero consorzio comunale di Agrigento,IT-AG,37.3105202,13.5857978
IT,Libero consorzio comunale di Caltanissetta,IT-CL,37.486013,14.0614982
IT,Libero consorzio comunale di Enna,IT-EN,37.5676216,14.2795349
IT,Libero consorzio comunale di Ragusa,IT-RG,36.9269273,14.7255129
IT,Libero consorzio comunale di Siracusa,IT-SR,37.0656924,15.2857109
IT,Libero consorzio comunale di Trapani,IT-TP,38.0183116,12.5148265
IT,Liguria,IT-42,44.3167917,8.3964938
IT,Lombardy,IT-25,45.4790671,9.8452433
IT,Marche,IT-57,30.556707,-81.449303
IT,Metropolitan City of Bari,IT-BA,41.1171432,16.8718715
IT,Metropolitan City of Bologna,IT-BO,44.494887,11.3426162
IT,Metropolitan City of Cagliari,IT-CA,39.2238411,9.1216613
IT,Metropolitan City of Catania,IT-CT,37.4515438,15.0557415
IT,Metropolitan City of Florence,IT-FI,43.7679178,11.2523792
IT,Metropolitan City of Genoa,IT-GE,44.4056493,8.9462564
IT,Metropolitan City of Messina,IT-ME,38.1937335,15.5542057
IT,Metropolitan City of Milan,IT-MI,45.458626,9.181873
IT,Metropolitan City of Naples,IT-NA,40.901975,14.332644
IT,Metropolitan City of Palermo,IT-PA,38.11569,13.3614868
IT,Metropolitan City of Reggio Calabria,IT-RC,38.1084396,15.6437048
IT,Metropolitan City of Rome,IT-RM,41.9027008,12.4962352
IT,Metropolitan City of Turin,IT-TO,45.063299,7.669289
IT,Metropolitan City of Venice,IT-VE,45.4414685,12.3152672
IT,Molise,IT-67,41.6738865,14.7520939
IT,Pesaro and Urbino Province,IT-PU,43.6130118,12.7135121
IT,Piedmont,IT-21,45.0522366,7.5153885
IT,Province of Alessandria,IT-AL,44.8175587,8.7046627
IT,Province of Ancona,IT-AN,43.5493245,13.2663479
IT,Province of Ascoli Piceno,IT-AP,42.8638933,13.5899733
IT,Province of Asti,IT-AT,44.9007652,8.2064315
IT,Province of Avellino,IT-AV,40.996451,15.1258955
IT,Province of Barletta-Andria-Trani,IT-BT,41.2004543,16.2051484
IT,Province of Belluno,IT-BL,46.2497659,12.1969565
IT,Province of Bergamo,IT-BG,45.6982642,9.6772698
IT,Province of Biella,IT-BI,45.5628176,8.0582717
IT,Province of Brescia,IT-BS,45.5415526,10.2118019
IT,Province of Brindisi,IT-BR,40.6112663,17.763621
IT,Province of Campobasso,IT-CB,41.6738865,14.7520939
IT,Province of Carbonia-Iglesias,IT-CI,39.2534659,8.5721016
IT,Province of Caserta,IT-CE,41.2078354,14.1001326
IT,Province of Catanzaro,IT-CZ,38.8896348,16.4405872
IT,Province of Chieti,IT-CH,42.0334428,14.3791912
IT,Province of Como,IT-CO,45.8080416,9.0851793
IT,Province of Cosenza,IT-CS,39.5644105,16.2522143
IT,Province of Cremona,IT-CR,45.2014375,9.9836582
IT,Province of Crotone,IT-KR,39.1309856,17.0067031
IT,Province of Cuneo,IT-CN,44.5970314,7.6114217
IT,Province of Fermo,IT-FM,43.0931367,13.5899733
IT,Province of Ferrara,IT-FE,44.766368,11.7644068
IT,Province of Foggia,IT-FG,41.638448,15.5943388
IT,Province of Forlì-Cesena,IT-FC,43.9947681,11.9804613
IT,Province of Frosinone,IT-FR,41.6576528,13.6362715
IT,Province of Gorizia,IT-GO,45.9053899,13.5163725
IT,Province of Grosseto,IT-GR,42.8518007,11.2523792
IT,Province of Imperia,IT-IM,43.941866,7.8286368
IT,Province of Isernia,IT-IS,41.5891555,14.1930918
IT,Province of L'Aquila,IT-AQ,42.1256317,13.6362715
IT,Province of La Spezia,IT-SP,44.2447913,9.7678687
IT,Province of Latina,IT-LT,41.4087476,13.0817903
IT,Province of Lecce,IT-LE,40.2347393,18.1428669
IT,Province of Lecco,IT-LC,45.9382941,9.385729
IT,Province of Livorno,IT-LI,43.0239848,10.6647101
IT,Province of Lodi,IT-LO,45.2405036,9.5292512
IT,Province of Lucca,IT-LU,43.8376736,10.495053
IT,Province of Macerata,IT-MC,43.2459322,13.2663479
IT,Province of Mantua,IT-MN,45.1667728,10.7753613
IT,Province of Massa and Carrara,IT-MS,44.2213998,10.0359661
IT,Province of Matera,IT-MT,40.6663496,16.6043636
IT,Province of Medio Campidano,IT-VS,39.5317389,8.704075
IT,Province of Modena,IT-MO,44.5513799,10.918048
IT,Province of Monza and Brianza,IT-MB,45.623599,9.2588015
IT,Province of Novara,IT-NO,45.5485133,8.5150793
IT,Province of Nuoro,IT-NU,40.3286904,9.456155
IT,Province of Ogliastra,IT-OG,39.8410536,9.456155
IT,Province of Olbia-Tempio,IT-OT,40.8268383,9.2785583
IT,Province of Oristano,IT-OR,40.0599068,8.7481167
IT,Province of Padua,IT-PD,45.3661864,11.8209139
IT,Province of Parma,IT-PR,44.8015322,10.3279354
IT,Province of Pavia,IT-PV,45.3218166,8.8466236
IT,Province of Perugia,IT-PG,42.938004,12.6216211
IT,Province of Pescara,IT-PE,42.3570655,13.9608091
IT,Province of Piacenza,IT-PC,44.8263112,9.5291447
IT,Province of Pisa,IT-PI,43.7228315,10.4017194
IT,Province of Pistoia,IT-PT,43.9543733,10.8903099
IT,Province of Pordenone,IT-PN,46.0378862,12.710835
IT,Province of Potenza,IT-PZ,40.4182194,15.876004
IT,Province of Prato,IT-PO,44.04539,11.1164452
IT,Province of Ravenna,IT-RA,44.4184443,12.2035998
IT,Province of Reggio Emilia,IT-RE,44.585658,10.5564736
IT,Province of Rieti,IT-RI,42.3674405,12.8975098
IT,Province of Rimini,IT-RN,44.0678288,12.5695158
IT,Province of Rovigo,IT-RO,45.0241818,11.8238162
IT,Province of Salerno,IT-SA,40.4287832,15.2194808
IT,Province of Sassari,IT-SS,40.7967907,8.5750407
IT,Province of Savona,IT-SV,44.2887995,8.265058
IT,Province of Siena,IT-SI,43.2937732,11.4339148
IT,Province of Sondrio,IT-SO,46.1727636,9.7994917
IT,Province of Taranto,IT-TA,40.5740901,17.2429976
IT,Province of Teramo,IT-TE,42.5895608,13.6362715
IT,Province of Terni,IT-TR,42.5634534,12.5298028
IT,Province of Treviso,IT-TV,45.6668517,12.2430617
IT,Province of Trieste,IT-TS,45.6894823,13.7833072
IT,Province of Udine,IT-UD,46.1407972,13.1662896
IT,Province of Varese,IT-VA,45.799026,8.7300945
IT,Province of Verbano-Cusio-Ossola,IT-VB,46.1399688,8.2724649
IT,Province of Vercelli,IT-VC,45.3202204,8.418508
IT,Province of Verona,IT-VR,45.4418498,11.0735316
IT,Province of Vibo Valentia,IT-VV,38.6378565,16.2051484
IT,Province of Vicenza,IT-VI,45.6983995,11.5661465
IT,Province of Viterbo,IT-VT,42.400242,11.8891721
IT,Sardinia,IT-88,40.1208752,9.0128926
IT,Sicily,IT-82,37.5999938,14.0153557
IT,South Tyrol,IT-BZ,46.494945,11.3402657
IT,Trentino,IT-TN,46.0512004,11.1175392
IT,Trentino-South Tyrol,IT-32,46.4336662,11.1693296
IT,Tuscany,IT-52,43.7710513,11.2486208
IT,Umbria,IT-55,42.938004,12.6216211
IT,Veneto,IT-34,45.4414662,12.3152595
JM,Clarendon Parish,JM-13,17.9557183,-77.2405153
JM,Hanover Parish,JM-9,18.4097707,-78.133638
JM,Kingston Parish,JM-1,17.9683271,-76.782702
JM,Manchester Parish,JM-12,18.0669654,-77.5160788
JM,Portland Parish,JM-4,18.0844274,-76.4100267
JM,Saint Andrew,JM-2,37.2245103,-95.7021189
JM,Saint Ann Parish,JM-6,37.2871452,-77.4103533
JM,Saint Catherine Parish,JM-14,18.0364134,-77.0564464
JM,Saint Elizabeth Parish,JM-11,38.9925308,-94.58992
JM,Saint James Parish,JM-8,30.0179292,-90.7913227
JM,Saint Mary Parish,JM-5,36.092522,-95.973844
JM,Saint Thomas Parish,JM-3,41.4425389,-81.7402218
JM,Trelawny Parish,JM-7,18.3526143,-77.6077865
JM,Westmoreland Parish,JM-10,18.2944378,-78.1564432
JP,Aichi Prefecture,JP-23,35.0182505,137.2923893
JP,Akita Prefecture,JP-5,40.1376293,140.334341
JP,Aomori Prefecture,JP-2,40.7657077,140.9175879
JP,Chiba Prefecture,JP-12,35.3354155,140.1832516
JP,Ehime Prefecture,JP-38,33.6025306,132.7857583
JP,Fukui Prefecture,JP-18,35.896227,136.2111579
JP,Fukuoka Prefecture,JP-40,33.5662559,130.715857
JP,Fukushima Prefecture,JP-7,37.3834373,140.1832516
JP,Gifu Prefecture,JP-21,35.7437491,136.9805103
JP,Gunma Prefecture,JP-10,36.5605388,138.8799972
JP,Hiroshima Prefecture,JP-34,34.8823408,133.0194897
JP,Hokkaidō Prefecture,JP-1,43.2203266,142.8634737
JP,Hyōgo Prefecture,JP-28,34.8579518,134.5453787
JP,Ibaraki Prefecture,JP-8,36.2193571,140.1832516
JP,Ishikawa Prefecture,JP-17,36.3260317,136.5289653
JP,Iwate Prefecture,JP-3,39.5832989,141.2534574
JP,Kagawa Prefecture,JP-37,34.2225915,134.0199152
JP,Kagoshima Prefecture,JP-46,31.3911958,130.8778586
JP,Kanagawa Prefecture,JP-14,35.4913535,139.284143
JP,Kōchi Prefecture,JP-39,33.2879161,132.2759262
JP,Kumamoto Prefecture,JP-43,32.8594427,130.7969149
JP,Kyōto Prefecture,JP-26,35.1566609,135.5251982
JP,Mie Prefecture,JP-24,33.8143901,136.0487047
JP,Miyagi Prefecture,JP-4,38.630612,141.1193048
JP,Miyazaki Prefecture,JP-45,32.6036022,131.441251
JP,Nagano Prefecture,JP-20,36.1543941,137.9218204
JP,Nagasaki Prefecture,JP-42,33.2488525,129.6930912
JP,Nara Prefecture,JP-29,34.2975528,135.8279734
JP,Niigata Prefecture,JP-15,37.5178386,138.9269794
JP,Ōita Prefecture,JP-44,33.1589299,131.3611121
JP,Okayama Prefecture,JP-33,34.8963407,133.6375314
JP,Okinawa Prefecture,JP-47,26.1201911,127.7025012
JP,Ōsaka Prefecture,JP-27,34.6413315,135.5629394
JP,Saga Prefecture,JP-41,33.3078371,130.2271243
JP,Saitama Prefecture,JP-11,35.9962513,139.4466005
JP,Shiga Prefecture,JP-25,35.3292014,136.0563212
JP,Shimane Prefecture,JP-32,35.1244094,132.6293446
JP,Shizuoka Prefecture,JP-22,35.0929397,138.3190276
JP,Tochigi Prefecture,JP-9,36.6714739,139.8547266
JP,Tokushima Prefecture,JP-36,33.9419655,134.3236557
JP,Tokyo,JP-13,35.6761919,139.6503106
JP,Tottori Prefecture,JP-31,35.3573161,133.4066618
JP,Toyama Prefecture,JP-16,36.6958266,137.2137071
JP,Wakayama Prefecture,JP-30,33.9480914,135.3745358
JP,Yamagata Prefecture,JP-6,38.5370564,140.1435198
JP,Yamaguchi Prefecture,JP-35,34.2796769,131.5212742
JP,Yamanashi Prefecture,JP-19,35.6635113,138.6388879
JO,Ajloun Governorate,JO-AJ,32.3325584,35.7516844
JO,Amman Governorate,JO-AM,31.9453633,35.9283895
JO,Aqaba Governorate,JO-AQ,29.532086,35.0062821
JO,Balqa Governorate,JO-BA,32.0366806,35.728848
JO,Irbid Governorate,JO-IR,32.5569636,35.8478965
JO,Jerash Governorate,JO-JA,32.2747237,35.8960954
JO,Karak Governorate,JO-KA,31.1853527,35.7047682
JO,Ma'an Governorate,JO-MN,30.1926789,35.7249319
JO,Madaba Governorate,JO-MD,31.7196097,35.7932754
JO,Mafraq Governorate,JO-MA,32.3416923,36.2020175
JO,Tafilah Governorate,JO-AT,30.8338063,35.6160513
JO,Zarqa Governorate,JO-AZ,32.0608505,36.0942121
KZ,Akmola Region,KZ-AKM,51.916532,69.4110494
KZ,Aktobe Region,KZ-AKT,48.7797078,57.9974378
KZ,Almaty,KZ-ALA,43.2220146,76.8512485
KZ,Almaty Region,KZ-ALM,45.0119227,78.4229392
KZ,Atyrau Region,KZ-ATY,47.1076188,51.914133
KZ,Baikonur,KZ-BAY,45.9645851,63.3052428
KZ,East Kazakhstan Region,KZ-VOS,48.7062687,80.7922534
KZ,Jambyl Region,KZ-ZHA,44.2220308,72.3657967
KZ,Karaganda Region,KZ-KAR,47.9022182,71.7706807
KZ,Kostanay Region,KZ-KUS,51.5077096,64.0479073
KZ,Kyzylorda Region,KZ-KZY,44.6922613,62.6571885
KZ,Mangystau Region,KZ-MAN,44.590802,53.8499508
KZ,North Kazakhstan Region,KZ-SEV,54.1622066,69.9387071
KZ,Nur-Sultan,KZ-AST,51.1605227,71.4703558
KZ,Pavlodar Region,KZ-PAV,52.2878444,76.9733453
KZ,Turkestan Region,KZ-YUZ,43.3666958,68.4094405
KZ,West Kazakhstan Province,KZ-ZAP,49.5679727,50.8066616
KE,Baringo County,KE-1,0.8554988,36.0893406
KE,Bomet County,KE-2,-0.8015009,35.3027226
KE,Bungoma County,KE-3,0.5695252,34.5583766
KE,Busia County,KE-4,0.4346506,34.2421597
KE,Central Province,KE-200,,
KE,Coast Province,KE-300,39.1373305,-76.7294144
KE,Eastern Province,KE-400,,
KE,Elgeyo-Marakwet County,KE-5,1.0498237,35.4781926
KE,Embu County,KE-6,-0.6560477,37.7237678
KE,Garissa County,KE-7,-0.4532293,39.6460988
KE,Homa Bay County,KE-8,-0.6220655,34.3310364
KE,Isiolo County,KE-9,0.3524352,38.4849923
KE,Kajiado County,KE-10,-2.0980751,36.7819505
KE,Kakamega County,KE-11,0.307894,34.7740793
KE,Kericho County,KE-12,-0.1827913,35.4781926
KE,Kiambu County,KE-13,-1.0313701,36.8680791
KE,Kilifi County,KE-14,-3.5106508,39.9093269
KE,Kirinyaga County,KE-15,-0.6590565,37.3827234
KE,Kisii County,KE-16,-0.677334,34.779603
KE,Kisumu County,KE-17,-0.0917016,34.7679568
KE,Kitui County,KE-18,-1.6832822,38.3165725
KE,Kwale County,KE-19,-4.1816115,39.4605612
KE,Laikipia County,KE-20,0.3606063,36.7819505
KE,Lamu County,KE-21,-2.2355058,40.4720004
KE,Machakos County,KE-22,-1.5176837,37.2634146
KE,Makueni County,KE-23,-2.2558734,37.8936663
KE,Mandera County,KE-24,3.5737991,40.958688
KE,Marsabit County,KE-25,2.4426403,37.9784585
KE,Meru County,KE-26,0.3557174,37.8087693
KE,Migori County,KE-27,-0.9365702,34.4198243
KE,Mombasa County,KE-28,-3.9768291,39.7137181
KE,Muranga County,KE-29,-0.7839281,37.0400339
KE,Nairobi,KE-110,-1.2920659,36.8219462
KE,Nakuru District,KE-31,-0.3030988,36.080026
KE,Nandi District,KE-32,0.1835867,35.1268781
KE,Narok County,KE-33,-1.104111,36.0893406
KE,North Eastern Province,KE-500,7.7853051,81.4278984
KE,Nyamira District,KE-34,-0.5669405,34.9341234
KE,Nyandarua County,KE-35,-0.1803855,36.5229641
KE,Nyanza Province,KE-600,-0.0889894,34.7717912
KE,Nyeri County,KE-36,-0.4196915,37.0400339
KE,Rift Valley Province,KE-700,11.4098737,41.2808577
KE,Samburu County,KE-37,1.2154506,36.954107
KE,Siaya County,KE-38,-0.0617328,34.2421597
KE,Taita–Taveta County,KE-39,-3.3160687,38.4849923
KE,Tana River County,KE-40,-1.6518468,39.6518165
KE,Tharaka Nithi County,KE-41,-0.2964851,37.7237678
KE,Trans-Nzoia District,KE-42,1.0566667,34.9506625
KE,Turkana County,KE-43,3.3122477,35.5657862
KE,Uasin Gishu District,KE-44,0.5527638,35.3027226
KE,Vihiga District,KE-45,0.0767553,34.7077665
KE,Wajir County,KE-46,1.6360475,40.3088626
KE,West Pokot County,KE-47,1.6210076,35.3905046
KE,Western Province,KE-800,,
KI,Gilbert Islands,KI-G,0.3524262,174.7552634
KI,Line Islands,KI-L,1.7429439,-157.2132826
KI,Phoenix Islands,KI-P,33.3284369,-111.9824774
XK,Đakovica District (Gjakove),XK-XDG,42.4375756,20.3785438
XK,Gjilan District,XK-XGJ,42.4635206,21.4694011
XK,Kosovska Mitrovica District,XK-XKM,42.8913909,20.8659995
XK,Peć District,XK-XPE,42.6592155,20.2887624
XK,Pristina (Priştine),XK-XPI,42.6629138,21.1655028
XK,Prizren District,XK-XPR,42.2152522,20.7414772
XK,Uroševac District (Ferizaj),XK-XUF,42.3701844,21.1483281
KW,Al Ahmadi Governorate,KW-AH,28.5745125,48.1024743
KW,Al Farwaniyah Governorate,KW-FA,29.273357,47.9400154
KW,Al Jahra Governorate,KW-JA,29.9931831,47.7634731
KW,Capital Governorate,KW-KU,26.2285161,50.5860497
KW,Hawalli Governorate,KW-HA,29.3056716,48.0307613
KW,Mubarak Al-Kabeer Governorate,KW-MU,29.21224,48.0605108
KG,Batken Region,KG-B,39.9721425,69.8597406
KG,Bishkek,KG-GB,42.8746212,74.5697617
KG,Chuy Region,KG-C,42.5655,74.4056612
KG,Issyk-Kul Region,KG-Y,42.1859428,77.5619419
KG,Jalal-Abad Region,KG-J,41.106808,72.8988069
KG,Naryn Region,KG-N,41.2943227,75.3412179
KG,Osh,KG-GO,36.0631399,-95.9182895
KG,Osh Region,KG-O,39.8407366,72.8988069
KG,Talas Region,KG-T,42.2867339,72.5204827
LA,Attapeu Province,LA-AT,14.93634,107.1011931
LA,Bokeo Province,LA-BK,20.2872662,100.7097867
LA,Bolikhamsai Province,LA-BL,18.4362924,104.4723301
LA,Champasak Province,LA-CH,14.6578664,105.9699878
LA,Houaphanh Province,LA-HO,20.3254175,104.1001326
LA,Khammouane Province,LA-KH,17.6384066,105.2194808
LA,Luang Namtha Province,LA-LM,20.9170187,101.1617356
LA,Luang Prabang Province,LA-LP,20.0656229,102.6216211
LA,Oudomxay Province,LA-OU,20.4921929,101.8891721
LA,Phongsaly Province,LA-PH,21.5919377,102.2547919
LA,Sainyabuli Province,LA-XA,19.3907886,101.5248055
LA,Salavan Province,LA-SL,15.8171073,106.2522143
LA,Savannakhet Province,LA-SV,16.5065381,105.5943388
LA,Sekong Province,LA-XE,15.5767446,107.0067031
LA,Vientiane Prefecture,LA-VT,18.110541,102.5298028
LA,Vientiane Province,LA-VI,18.5705063,102.6216211
LA,Xaisomboun,LA-XN,,
LA,Xaisomboun Province,LA-XS,18.4362924,104.4723301
LA,Xiangkhouang Province,LA-XI,19.6093003,103.7289167
LV,Aglona Municipality,LV-1,56.1089006,27.1286227
LV,Aizkraukle Municipality,LV-2,56.646108,25.2370854
LV,Aizpute Municipality,LV-3,56.7182596,21.6072759
LV,Aknīste Municipality,LV-4,56.1613037,25.7484827
LV,Aloja Municipality,LV-5,57.767136,24.8770839
LV,Alsunga Municipality,LV-6,56.9828531,21.5555919
LV,Alūksne Municipality,LV-7,57.4254485,27.0424968
LV,Amata Municipality,LV-8,56.9938726,25.2627675
LV,Ape Municipality,LV-9,57.5392697,26.6941649
LV,Auce Municipality,LV-10,56.460168,22.9054781
LV,Babīte Municipality,LV-12,56.954155,23.945399
LV,Baldone Municipality,LV-13,56.74246,24.3911544
LV,Baltinava Municipality,LV-14,56.9458468,27.6441066
LV,Balvi Municipality,LV-15,57.132624,27.2646685
LV,Bauska Municipality,LV-16,56.4101868,24.2000689
LV,Beverīna Municipality,LV-17,57.5197109,25.6073654
LV,Brocēni Municipality,LV-18,56.7347541,22.6357371
LV,Burtnieki Municipality,LV-19,57.6949004,25.2764777
LV,Carnikava Municipality,LV-20,57.1024121,24.2108662
LV,Cēsis Municipality,LV-22,57.3102897,25.2676125
LV,Cesvaine Municipality,LV-21,56.9679264,26.3083172
LV,Cibla Municipality,LV-23,56.6102344,27.8696598
LV,Dagda Municipality,LV-24,56.0956089,27.532459
LV,Daugavpils,LV-DGV,55.874736,26.536179
LV,Daugavpils Municipality,LV-25,55.8991783,26.6102012
LV,Dobele Municipality,LV-26,56.626305,23.2809066
LV,Dundaga Municipality,LV-27,57.5049167,22.3505114
LV,Durbe Municipality,LV-28,56.6279857,21.4916245
LV,Engure Municipality,LV-29,57.16235,23.2196634
LV,Ērgļi Municipality,LV-30,56.9237065,25.6753852
LV,Garkalne Municipality,LV-31,57.0190387,24.3826181
LV,Grobiņa Municipality,LV-32,56.539632,21.166892
LV,Gulbene Municipality,LV-33,57.2155645,26.6452955
LV,Iecava Municipality,LV-34,56.5986793,24.1996272
LV,Ikšķile Municipality,LV-35,56.8373667,24.4974745
LV,Ilūkste Municipality,LV-36,55.9782547,26.2965088
LV,Inčukalns Municipality,LV-37,57.0994342,24.685557
LV,Jaunjelgava Municipality,LV-38,56.5283659,25.3921443
LV,Jaunpiebalga Municipality,LV-39,57.1433471,25.9951888
LV,Jaunpils Municipality,LV-40,56.7314194,23.0125616
LV,Jēkabpils,LV-JKB,56.501455,25.878299
LV,Jēkabpils Municipality,LV-42,56.291932,25.9812017
LV,Jelgava,LV-JEL,56.6511091,23.7213541
LV,Jelgava Municipality,LV-41,56.5895689,23.6610481
LV,Jūrmala,LV-JUR,56.947079,23.6168485
LV,Kandava Municipality,LV-43,57.0340673,22.7801813
LV,Kārsava Municipality,LV-44,56.7645842,27.7358295
LV,Ķegums Municipality,LV-51,56.7475357,24.7173645
LV,Ķekava Municipality,LV-52,56.8064351,24.1939493
LV,Kocēni Municipality,LV-45,57.5226292,25.3349507
LV,Koknese Municipality,LV-46,56.720556,25.4893909
LV,Krāslava Municipality,LV-47,55.8951464,27.1814577
LV,Krimulda Municipality,LV-48,57.1791273,24.7140127
LV,Krustpils Municipality,LV-49,56.5415578,26.2446397
LV,Kuldīga Municipality,LV-50,56.9687257,21.9613739
LV,Lielvārde Municipality,LV-53,56.7392976,24.9711618
LV,Liepāja,LV-LPX,56.5046678,21.010806
LV,Līgatne Municipality,LV-55,57.1944204,25.0940681
LV,Limbaži Municipality,LV-54,57.5403227,24.7134451
LV,Līvāni Municipality,LV-56,56.3550942,26.172519
LV,Lubāna Municipality,LV-57,56.8999269,26.7198789
LV,Ludza Municipality,LV-58,56.545959,27.7143199
LV,Madona Municipality,LV-59,56.8598923,26.2276201
LV,Mālpils Municipality,LV-61,57.0084119,24.9574278
LV,Mārupe Municipality,LV-62,56.8965717,24.0460049
LV,Mazsalaca Municipality,LV-60,57.9267749,25.0669895
LV,Mērsrags Municipality,LV-63,57.3306881,23.1023707
LV,Naukšēni Municipality,LV-64,57.9295361,25.5119266
LV,Nereta Municipality,LV-65,56.1986655,25.3252969
LV,Nīca Municipality,LV-66,56.3464983,21.065493
LV,Ogre Municipality,LV-67,56.8147355,24.6044555
LV,Olaine Municipality,LV-68,56.7952353,24.0153589
LV,Ozolnieki Municipality,LV-69,56.6756305,23.8994816
LV,Pārgauja Municipality,LV-70,57.3648122,24.9822045
LV,Pāvilosta Municipality,LV-71,56.8865424,21.1946849
LV,Pļaviņas Municipality,LV-72,56.6177313,25.7194043
LV,Preiļi Municipality,LV-73,56.1511157,26.7439767
LV,Priekule Municipality,LV-74,56.4179413,21.5503336
LV,Priekuļi Municipality,LV-75,57.3617138,25.4410423
LV,Rauna Municipality,LV-76,57.331693,25.6100339
LV,Rēzekne,LV-REZ,56.5099223,27.3331357
LV,Rēzekne Municipality,LV-77,56.3273638,27.3284331
LV,Riebiņi Municipality,LV-78,56.343619,26.8018138
LV,Riga,LV-RIX,56.9496487,24.1051865
LV,Roja Municipality,LV-79,57.5046713,22.8012164
LV,Ropaži Municipality,LV-80,56.9615786,24.6010476
